idx,city,country_code,lat,lon,population,radius_m,car_len_m,footway_len_m,sidewalk_len_m,with_sidewalk_len_m
1,Shanghai,CN,31.22222,121.45806,24874500,30000,14302915.66,1666039.33,457725.97,114337.39
2,Beijing,CN,39.9075,116.39723,18960744,30000,16876608.85,3716029.22,480143.97,218140.31
3,Shenzhen,CN,22.54554,114.0683,17494398,30000,10287625.48,8128926.17,2252774.96,1448489.06
4,Guangzhou,CN,23.11667,113.25,16096724,30000,15542594.85,2137960.77,551344.77,250632.66
5,Kinshasa,CD,-4.32758,15.31357,16000000,30000,12749027.51,424968.72,17143.48,29982.48
6,Istanbul,TR,41.01384,28.94966,15701602,30000,16931323.82,2008953.1,266245.3,419837.83
7,Lagos,NG,6.45407,3.39467,15388000,30000,13199952.54,102668.29,5346.08,8956.45
8,Ho Chi Minh City,VN,10.82302,106.62965,14002598,30000,20463147.75,641123.87,271549.01,263004.64
9,Chengdu,CN,30.66667,104.06667,13568357,30000,15128553.54,1128842.81,112971.03,16313.69
10,Lahore,PK,31.558,74.35071,13004135,30000,17617229.66,172087.64,6523.67,6071.05
11,Mumbai,IN,19.07283,72.88261,12691836,30000,8199527.72,553311.9,50535.34,61201.5
12,São Paulo,BR,-23.5475,-46.63611,12400232,30000,27872358.47,2588112.83,1079304.25,1748289.54
13,Mexico City,MX,19.42847,-99.12766,12294193,30000,34474798.59,2808964.19,358917.72,1318294.87
14,Karachi,PK,24.8608,67.0104,11624219,30000,16657298.23,145789.96,4656.88,83190.54
15,Tianjin,CN,39.14222,117.17667,11090314,30000,10203525.62,298283.47,3974.74,5499.46
16,Delhi,IN,28.65195,77.23149,11034555,30000,31364165.8,1111392.13,93500.04,191123.8
17,Wuhan,CN,30.58333,114.26667,10392693,30000,10035552.22,752592.1,85728.66,2272.43
18,Moscow,RU,55.75222,37.61556,10381222,30000,9712826.73,22551818.54,4460664.37,835289.86
19,Dhaka,BD,23.7104,90.40744,10356500,30000,11013865.6,330658.82,15701.46,369701.14
20,Seoul,KR,37.566,126.9784,10349312,30000,17385871.04,8562554.55,2667233.08,578573.75
21,Tokyo,JP,35.6895,139.69171,9733276,30000,44199573.45,14278070.01,7801313.06,870276.26
22,Dongguan,CN,23.01797,113.74866,9644871,30000,11086444.21,455334.95,51157.23,12135.85
23,Cairo,EG,30.06263,31.24967,9606916,30000,31735167.15,2998351.55,24006.2,37074.7
24,Xi’an,CN,34.25833,108.92861,9600000,30000,11504673.65,731296.39,47652.29,60406.44
25,Johannesburg,ZA,-26.20227,28.04363,9418183,30000,21625709.55,1232201.06,212675.76,81697.75
26,Nanjing,CN,32.06167,118.77778,9314685,30000,8373156.2,1003167.99,94619.96,16273.69
27,Hangzhou,CN,30.29365,120.16142,9236032,30000,13800396.33,1429051.38,124197.05,9662.3
28,Foshan,CN,23.02677,113.13148,9042509,30000,15387758.65,1894093.31,627645.36,243850.54
29,London,GB,51.50853,-0.12574,8961989,29937,20673067.12,14782375.58,3327824.43,6022749.6
30,New York City,US,40.71427,-74.00597,8804190,29672,22257151.91,21099708.88,17125928.62,1589738.26
31,Jakarta,ID,-6.21462,106.84513,8540121,29223,26345526.42,858809.06,93104.06,828331.47
32,Bengaluru,IN,12.97194,77.59369,8495492,29147,25681006.19,1311698.37,530938.95,1252756.32
33,Hanoi,VN,21.0245,105.84117,8053663,28379,19731179.34,2050033.41,1472192.93,495376.99
34,Taipei,TW,25.05306,121.52639,7871900,28057,8271739.24,5277713.96,1158779.62,381283.04
35,Lima,PE,-12.04318,-77.02824,7737002,27815,15676011.86,3745447.4,1600493.46,260163.73
36,Bogotá,CO,4.60971,-74.08175,7674366,27703,10152527.01,3940812.3,1510372.12,556035.38
37,Chongqing,CN,29.56026,106.55771,7457599,27309,8827306.87,658816.13,115378.25,7129.82
38,Hong Kong,HK,22.27832,114.17469,7396076,27196,2713735.27,7381395.87,1703980.92,1401114.42
39,Baghdad,IQ,33.34058,44.40088,7216000,26863,15292646.97,211522.87,37393.18,6707.64
40,Qingdao,CN,36.06488,120.38042,7172451,26781,4241371.56,280738.96,37098.7,49966.82
41,Tehran,IR,35.69439,51.42151,7153309,26746,12423651.26,1660663.82,130752.89,166529.79
42,Shenyang,CN,41.79222,123.43278,7050000,26552,5969647.83,440246.63,9561.92,7835.67
43,Hyderabad,IN,17.38405,78.45636,6993262,26445,23424063.37,247697.76,4560.66,184094.97
44,Rio de Janeiro,BR,-22.90642,-43.18223,6747815,25977,10256721.18,1079805.65,110565.67,314345.9
45,Suzhou,CN,31.30408,120.59538,6715559,25914,8086192.85,814558.74,197268.42,19663.55
46,Ahmedabad,IN,23.02579,72.58727,6357693,25214,11339494.6,144398.13,13691.59,30385.15
47,Abidjan,CI,5.35444,-4.00167,6321017,25142,7640250.32,586970.03,4717.24,31790.09
48,Singapore,SG,1.28967,103.85007,5638700,23746,5004646.32,5451862.58,540869.48,1148672.17
49,Sydney,AU,-33.86785,151.20732,5557233,23574,8461740.41,7799696.68,4902847.96,1321116.06
50,Dar es Salaam,TZ,-6.82349,39.26951,5383728,23203,11299650.34,3232730.21,192.55,116712.04
51,Saint Petersburg,RU,59.93863,30.31413,5351935,23134,4986732.6,10638532.02,3522193.7,633501.69
52,Melbourne,AU,-37.814,144.96332,5350705,23132,13234707.58,17048061.97,12653895.98,751669.22
53,Alexandria,EG,31.20176,29.91582,5263542,22942,6649735.58,162842.14,30082.18,5640.56
54,Harbin,CN,45.75,126.65,5242897,22897,4636753.3,418232.47,86864.04,7927.09
55,Bangkok,TH,13.75398,100.50144,5104476,22593,21139504.92,1711975.52,427685.23,307731.81
56,Hefei,CN,31.86389,117.28083,5050000,22472,6935112.01,362753.65,26086.99,1853.51
57,Dalian,CN,38.91222,121.60222,4913879,22167,3347982.33,170254.45,27496.9,11807.49
58,Kano,NG,12.00012,8.51672,4910000,22159,9463048.85,223600.81,571.35,0.0
59,Santiago,CL,-33.45694,-70.64827,4837295,21994,9046374.87,3960896.77,1707269.14,1470002.75
60,Cape Town,ZA,-33.92584,18.42322,4772846,21847,6500158.07,2363380.04,322822.49,197617.45
61,Peshawar,PK,34.008,71.57849,4758762,21815,5162453.63,73373.48,494.41,665973.88
62,Changchun,CN,43.88,125.32278,4714996,21714,5255226.65,340512.64,37245.97,0.0
63,Jeddah,SA,21.49012,39.18624,4697000,21673,8408162.05,77522.66,13814.9,464.07
64,Chennai,IN,13.08784,80.27847,4681087,21636,10187453.38,195805.71,13618.8,47357.92
65,Kolkata,IN,22.56263,88.36304,4631392,21521,14087566.48,157232.04,4328.3,51965.94
66,Xiamen,CN,24.47979,118.08187,4617251,21488,4002171.4,368504.34,32579.67,20296.12
67,Surat,IN,21.19594,72.83023,4591246,21427,7876031.06,17551.56,62.29,93342.9
68,Yangon,MM,16.80528,96.15611,4477638,21160,7112016.31,151120.99,1208.9,2009.39
69,Bao'an,CN,22.55213,113.88288,4476554,21158,4819444.18,2389063.19,874347.38,442540.2
70,Kabul,AF,34.52813,69.17233,4434550,21058,6486897.99,120876.84,6786.56,41484.09
71,Nairobi,KE,-1.28333,36.81667,4397073,20969,8940655.59,469584.89,7988.11,70689.58
72,Wuxi,CN,31.56887,120.28857,4396835,20969,6023298.04,650328.46,38629.57,2792.28
73,Giza,EG,30.00944,31.20861,4367343,20898,18436891.44,1457666.02,22247.03,35765.49
74,Jinan,CN,36.66833,116.99722,4335989,20823,4873932.15,553832.34,206809.76,11448.8
75,Taiyuan,CN,37.86944,112.56028,4303673,20745,4602539.51,372481.85,26348.37,4427.32
76,Zhengzhou,CN,34.75778,113.64861,4253913,20625,6544274.58,311413.63,7516.74,1812.92
77,Bamako,ML,12.60915,-7.97522,4227569,20561,11238934.28,355657.72,129.05,15377.28
78,Riyadh,SA,24.68773,46.72185,4205961,20508,16603250.98,229263.15,14784.14,8596.43
79,New Taipei City,TW,25.06199,121.45703,4004367,20011,6220348.21,3742379.32,1134619.04,351621.03
80,New Territories,HK,22.42441,114.11095,3984077,19960,3966433.33,6996203.9,1820181.18,1354039.59
81,Shijiazhuang,CN,38.04139,114.47861,3938513,19846,4482599.94,106952.46,7630.92,5118.18
82,Chattogram,BD,22.3384,91.83168,3920222,19800,3239183.78,284287.04,6053.33,11402.4
83,Addis Ababa,ET,9.02497,38.74689,3860000,19647,8793619.44,492971.23,14203.71,1956.87
84,Kunming,CN,25.03889,102.71833,3855346,19635,4145163.06,1488268.25,57310.74,198717.66
85,Zhongshan,CN,22.52306,113.37912,3841873,19601,5059810.09,135342.85,7904.18,5275.23
86,Nanning,CN,22.81667,108.31667,3839800,19595,3250086.52,240787.15,13974.6,39098.58
87,Shantou,CN,23.35489,116.67876,3838900,19593,3433784.65,144974.79,57653.51,18990.47
88,Los Angeles,US,34.05223,-118.24368,3820914,19547,12215011.25,3382483.88,2228644.16,478907.39
89,Faisalabad,PK,31.41554,73.08969,3800193,19494,8380992.26,13916.6,0.0,0.0
90,Dubai,AE,25.07725,55.30927,3790000,19468,6495938.34,2467616.15,174396.88,508787.59
91,Yokohama,JP,35.43333,139.65,3777491,19436,13463909.18,3648069.17,1607139.5,264160.66
92,Fuzhou,CN,26.06139,119.30611,3740000,19339,3135363.94,883741.18,86854.16,2139.24
93,Ningbo,CN,29.87819,121.54945,3731203,19316,5162189.86,374125.35,46323.79,4026.06
94,Casablanca,MA,33.58831,-7.61138,3665954,19147,5873286.92,338072.75,86969.53,4381.1
95,Ibadan,NG,7.37756,3.90591,3649000,19102,9702669.97,60135.81,116.87,3586.84
96,Puyang,CN,29.45679,119.88872,3590000,18947,1621170.16,88557.76,0.0,16734.85
97,Ankara,TR,39.91987,32.85427,3517182,18754,7542096.9,742536.82,144817.57,100210.99
98,Shiyan,CN,32.6475,110.77806,3460000,18601,1333693.87,4312.7,0.0,0.0
99,Berlin,DE,52.52437,13.41053,3426354,18510,5640318.09,14229652.35,6896029.53,1771533.95
100,Tangshan,CN,39.64381,118.18319,3372102,18363,4081026.48,307632.77,143852.01,0.0
101,Rawalpindi,PK,33.59733,73.0479,3357612,18324,9046719.9,465388.13,9540.54,80840.29
102,Busan,KR,35.10168,129.03004,3343903,18286,2990203.71,1343942.29,154680.44,206136.3
103,Durban,ZA,-29.8579,31.0292,3338026,18270,4749667.09,482787.06,22454.1,61518.7
104,Changzhou,CN,31.77359,119.95401,3290918,18141,4723606.89,50499.29,14614.05,445.11
105,Madrid,ES,40.4165,-3.70256,3255944,18044,7518848.92,8123356.42,2858056.66,1605303.61
106,Pyongyang,KP,39.03385,125.75432,3222000,17950,3480298.0,1022586.66,45110.86,14991.23
107,Zibo,CN,36.79056,118.06333,3129228,17690,3012131.98,88448.14,11107.46,0.0
108,Pune,IN,18.51957,73.85535,3124458,17676,7558819.81,355617.76,41327.54,62607.53
109,Bursa,TR,40.19559,29.06013,3101833,17612,4357280.08,279070.19,19056.03,170590.17
110,Changsha,CN,28.19874,112.97087,3093980,17590,5681323.24,297298.25,38615.77,7195.87
111,Jaipur,IN,26.91962,75.78781,3046163,17453,10855289.05,172446.6,6431.08,2039.33
112,Guiyang,CN,26.58333,106.71667,3037159,17427,2890133.27,78785.82,1555.0,0.0
113,Ürümqi,CN,43.80096,87.60046,3029372,17405,3190234.73,50445.85,1010.21,0.0
114,Incheon,KR,37.45646,126.70515,3016250,17367,4746459.19,1733710.63,527386.89,267571.28
115,Caracas,VE,10.48801,-66.87919,3000000,17321,3576254.77,618536.77,16880.46,2130434.63
116,Lanzhou,CN,36.05701,103.83987,3000000,17321,2374226.97,200674.49,1351.49,109067.09
117,Quezon City,PH,14.6488,121.0509,2960048,17205,10235650.02,1334797.43,335032.44,2575965.8
118,Huizhou,CN,23.11147,114.41523,2900113,17030,2455527.16,101662.16,18141.12,4734.28
119,Buenos Aires,AR,-34.61315,-58.37723,2891082,17003,7404571.4,1156642.59,109815.77,4044913.98
120,Surabaya,ID,-7.24917,112.75083,2874314,16954,5838616.38,105573.38,5384.35,18852.54
121,Haikou,CN,20.03421,110.34651,2873358,16951,2103911.67,127405.53,6670.82,437.25
122,Taichung,TW,24.1469,120.6839,2850285,16883,5352581.95,741862.77,257172.81,50715.24
123,Kanpur,IN,26.46523,80.34975,2823249,16803,5641240.14,15643.65,0.0,1028.32
124,Kyiv,UA,50.45466,30.5238,2797553,16726,3155070.65,5800854.43,1395709.43,161749.39
125,Toronto,CA,43.70643,-79.39864,2794356,16716,5324129.45,6800784.26,5192909.19,1665975.8
126,Quito,EC,-0.22985,-78.52495,2781641,16678,6054312.75,1562049.61,1075124.04,28007.13
127,Brisbane,AU,-27.46794,153.02809,2780063,16674,5717606.71,4417446.01,3064320.38,289687.54
128,Luanda,AO,-8.83682,13.23432,2776168,16662,7094505.19,214085.72,51031.69,3815.23
129,Osaka,JP,34.69379,135.50107,2753862,16595,15632093.97,4546639.78,2609562.42,529609.36
130,Linyi,CN,35.06306,118.34278,2743843,16565,3943021.02,704071.42,556705.68,14521.65
131,Baoding,CN,38.87288,115.46246,2739887,16553,1725069.97,24320.27,2111.15,0.0
132,Kaohsiung,TW,22.61626,120.31333,2737660,16546,4232396.93,772603.98,360895.48,216244.4
133,Brooklyn,US,40.6501,-73.94958,2736074,16541,6686875.0,13157531.52,11484205.13,998740.55
134,Guayaquil,EC,-2.19616,-79.88621,2723665,16504,5266957.58,436316.99,25656.14,187243.19
135,Belo Horizonte,BR,-19.92083,-43.93778,2721564,16497,7899131.7,554974.9,46103.84,138142.18
136,Salvador,BR,-12.97563,-38.49096,2711840,16468,2827214.56,363019.17,48534.94,166198.09
137,Abuja,NG,9.05785,7.49508,2690000,16401,5137514.14,47501.48,501.94,530.56
138,Gazipur,BD,23.99844,90.42234,2674697,16355,2605001.7,36535.12,2789.99,14189.82
139,Chicago,US,41.85003,-87.65005,2664452,16323,5648227.55,10407848.01,9480794.01,233269.57
140,Wenzhou,CN,27.99942,120.66682,2650000,16279,3137567.5,232216.11,6716.96,250.44
141,Dakar,SN,14.6937,-17.44406,2646503,16268,3144394.23,96193.27,4456.84,38013.09
142,Haiphong,VN,20.86481,106.68345,2625200,16202,3523326.55,171535.04,135321.76,103373.99
143,Yunfu,CN,22.92787,112.03809,2612800,16164,654437.96,15782.75,0.0,658.52
144,Navi Mumbai,IN,19.03681,73.01582,2600000,16125,3518652.64,213440.98,31970.69,14692.28
145,Mogadishu,SO,2.03711,45.34375,2587183,16085,4224373.75,50524.09,612.76,4300.98
146,Bekasi,ID,-6.2349,106.9896,2564940,16015,10328053.5,174532.49,8192.1,230353.89
147,Kumasi,GH,6.68848,-1.62443,2544530,15952,6539915.91,131196.49,7255.33,30015.12
148,Gujranwala,PK,32.15567,74.18705,2511118,15847,3842409.78,9208.65,0.0,0.0
149,İzmir,TR,38.41273,27.13838,2500603,15813,5120866.78,442578.84,71806.3,40062.35
150,Huai'an,CN,33.58861,119.01917,2494013,15792,2156417.15,46315.56,19869.49,0.0
151,Lucknow,IN,26.83928,80.92313,2472011,15723,7677116.58,82168.56,381.46,35837.13
152,Bandung,ID,-6.92222,107.60694,2444160,15634,6661542.93,495651.2,152054.04,129651.13
153,Medan,ID,3.58333,98.66667,2435252,15605,5712338.46,140047.93,405.41,20209.52
154,Ouagadougou,BF,12.36566,-1.53388,2415266,15541,9641911.97,1507350.93,125.56,51729.23
155,Nagpur,IN,21.14631,79.08491,2405665,15510,6378507.51,37715.13,1118.3,116762.53
156,Fortaleza,BR,-3.71722,-38.54306,2400000,15492,5400435.4,1438618.35,1211746.38,37202.7
157,Cali,CO,3.43054,-76.5199,2392877,15469,3660835.02,1289628.2,484489.45,21893.54
158,Daegu,KR,35.87028,128.59111,2365523,15380,3185310.58,1518608.72,201282.31,42745.48
159,Algiers,DZ,36.73225,3.08746,2364230,15376,4455105.21,407012.49,56425.69,641968.38
160,Nanchang,CN,28.68396,115.85306,2357839,15355,3541685.0,199398.67,4445.76,4283.8
161,Hohhot,CN,40.81056,111.65222,2350000,15330,2261954.41,43756.88,605.17,0.0
162,Nagoya,JP,35.18147,136.90641,2332176,15271,15332696.59,2203536.88,1042185.3,47112.08
163,Rome,IT,41.89193,12.51133,2318895,15228,5109211.26,2283093.84,1260294.74,624958.7
164,Queens,US,40.68149,-73.83652,2316841,15221,7487279.14,11396306.86,10023301.16,974160.77
165,Houston,US,29.76328,-95.36327,2314157,15212,6145317.66,1728196.13,1054286.51,304066.91
166,Perth,AU,-31.95224,115.8614,2309338,15197,6060337.74,2851087.88,1101059.59,150820.67
167,Mashhad,IR,36.29807,59.60567,2307177,15189,5066442.7,517427.25,52573.39,203894.75
168,Shaoxing,CN,30.00237,120.57864,2300000,15166,2371517.95,172587.48,514.51,0.0
169,Nantong,CN,32.03028,120.87472,2273326,15078,2875511.19,231693.94,5997.12,0.0
170,Kowloon,HK,22.31667,114.18333,2232339,14941,1573960.23,4486176.01,1215744.38,847002.75
171,Yantai,CN,37.47649,121.44081,2227733,14926,2246300.79,256477.99,135889.05,0.0
172,Lubumbashi,CD,-11.66089,27.47938,2221925,14906,4901124.92,167420.32,26.38,5098.16
173,Manaus,BR,-3.10194,-60.025,2219580,14898,3726396.99,141783.37,16449.53,37474.4
174,Lusaka,ZM,-15.40669,28.28713,2212301,14874,5028594.52,193838.18,543.5,92395.2
175,Brasília,BR,-15.77972,-47.92972,2207718,14858,3477389.49,1020154.75,173025.32,45576.65
176,Zhuhai,CN,22.27694,113.56778,2207090,14856,2012702.03,1289862.19,39489.51,23990.79
177,Santo Domingo,DO,18.47186,-69.89232,2201941,14839,5401612.26,150229.96,26267.25,85846.0
178,Lomé,TG,6.12874,1.22154,2188376,14793,3635076.32,201369.66,13845.57,13257.68
179,Multan,PK,30.19679,71.47824,2169915,14731,4213569.02,25786.74,21.43,0.0
180,Havana,CU,23.13302,-82.38304,2163824,14710,2832412.5,526148.59,142066.65,979652.22
181,Baotou,CN,40.6516,109.84389,2150000,14663,1949125.36,144685.78,67428.11,0.0
182,Depok,ID,-6.4,106.81861,2145400,14647,7722539.25,234083.16,9025.56,232443.33
183,Paris,FR,48.85341,2.3488,2138551,14624,7598425.54,7961342.91,3839002.87,2414993.11
184,Coimbatore,IN,11.00555,76.96612,2136916,14618,6746183.35,27096.71,388.42,43384.1
185,Gaziantep,TR,37.05944,37.3825,2130432,14596,4246953.17,62258.4,278.89,519.08
186,Port Harcourt,NG,4.77742,7.0134,2120000,14560,3125760.62,38619.29,3481.87,0.0
187,Pretoria,ZA,-25.74486,28.18783,2112693,14535,4825962.7,352447.43,27542.36,38776.88
188,Córdoba,AR,-31.40648,-64.18853,2106734,14515,5274030.55,275872.12,34368.47,47289.71
189,Mbuji-Mayi,CD,-6.13603,23.58979,2101332,14496,2101594.15,93509.38,0.0,0.0
190,Aleppo,SY,36.20124,37.16117,2098210,14485,4435597.08,149250.03,3980.68,11936.84
191,Kunshan,CN,31.37762,120.95431,2092496,14465,2449552.45,56708.12,13432.59,0.0
192,Al Mawşil al Jadīdah,IQ,36.33271,43.10555,2065597,14372,3932210.61,32309.93,4387.26,0.0
193,Weifang,CN,36.71,119.10194,2044028,14297,2487292.4,109478.98,42229.71,1924.89
194,Zunyi,CN,27.68667,106.90722,2037775,14275,1373320.22,27674.3,3427.78,0.0
195,Al Başrah al Qadīmah,IQ,30.50316,47.81507,2015483,14197,3690206.17,27920.56,652.72,13412.78
196,La Paz,BO,-16.5,-68.15,2004652,14159,6617034.14,638289.81,223765.86,333487.89
197,Lianyungang,CN,34.59845,119.21556,2001009,14146,1642678.04,13069.86,4287.13,1912.36
198,Medellín,CO,6.245,-75.57151,1999979,14142,3873381.09,1094473.61,469247.01,94607.09
199,Indore,IN,22.71792,75.8333,1994397,14122,5424813.87,52642.56,742.27,0.0
200,Brazzaville,CG,-4.26613,15.28318,1982000,14078,5454151.5,187312.04,12148.72,14811.22
201,Tashkent,UZ,41.26465,69.21627,1978028,14064,1747972.1,1230861.93,567966.49,149469.54
202,Ganzhou,CN,25.84664,114.9326,1977253,14061,2974191.94,316820.22,22447.36,10559.57
203,Almaty,KZ,43.25249,76.9115,1977011,14061,3769581.86,1238079.42,281491.1,58061.01
204,Khartoum,SD,15.55177,32.53241,1974647,14052,9048602.62,34369.55,1576.89,17393.24
205,Sapporo,JP,43.06667,141.35,1973832,14049,7048632.58,1456871.45,645071.55,338503.94
206,Accra,GH,5.55602,-0.1969,1963264,14012,4131392.0,102614.26,21678.83,128944.88
207,Curitiba,BR,-25.42778,-49.27306,1948626,13959,5748909.5,633869.7,341577.76,254123.17
208,Ordos,CN,39.6086,109.78157,1940653,13931,1721036.08,27423.4,181.85,0.0
209,Sanaa,YE,15.35452,44.20646,1937451,13919,3260221.51,24949.83,194.32,951.21
210,Conakry,GN,9.53795,-13.67729,1928389,13887,968601.26,24287.14,0.0,904.63
211,Tijuana,MX,32.5027,-117.00371,1922523,13866,5851538.55,1052487.76,613821.49,204820.22
212,Hyderabad,PK,25.39689,68.37718,1921275,13861,2680480.33,36518.31,0.0,0.0
213,Beirut,LB,33.89332,35.50157,1916100,13842,2679327.18,63885.66,3495.47,2377.01
214,Tangerang,ID,-6.17806,106.63,1912679,13830,6390606.95,166600.46,5884.57,98962.56
215,Jieyang,CN,23.5418,116.36581,1899394,13782,1869965.61,8825.83,1725.17,0.0
216,Jilin,CN,43.84652,126.5608,1895865,13769,1099650.29,36801.53,10319.64,1200.64
217,Bucharest,RO,44.43225,26.10626,1877155,13701,3598242.66,1000299.56,258644.66,438652.59
218,Camayenne,GN,9.535,-13.68778,1871242,13679,858579.78,23287.27,0.0,693.32
219,Kakamega,KE,0.28422,34.75229,1867579,13666,1898760.32,195830.71,99.55,851.03
220,Nanchong,CN,30.79508,106.08473,1858875,13634,1259852.46,41344.97,192.69,0.0
221,Tainan,TW,22.99083,120.21333,1856642,13626,2699630.12,346322.45,168186.32,246051.62
222,Datong,CN,40.09361,113.29139,1850000,13601,1409959.63,121532.2,3433.02,0.0
223,Kaduna,NG,10.52641,7.43879,1850000,13601,4009889.72,8550.62,0.0,4737.84
224,Omdurman,SD,15.64453,32.47773,1849659,13600,9136015.61,50306.85,1576.89,17393.24
225,Hamburg,DE,53.55073,9.99302,1845229,13584,3282095.54,4999235.68,818757.69,1885647.1
226,Thāne,IN,19.19704,72.96355,1841488,13570,3031041.1,194928.22,8183.81,15244.37
227,Santa Cruz de la Sierra,BO,-17.78629,-63.18117,1831434,13533,5893733.0,277453.88,35187.79,77397.94
228,Vadodara,IN,22.29941,73.20812,1822221,13499,4336959.91,9437.02,0.0,896.51
229,Adana,TR,36.98615,35.32531,1816750,13479,3482439.51,666322.28,528592.21,113228.01
230,Iztapalapa,MX,19.35529,-99.06224,1815786,13475,9416437.21,969065.11,196432.87,700436.46
231,Nanyang,CN,32.99472,112.53278,1811812,13460,1194764.74,106016.07,8255.49,0.0
232,Abu Dhabi,AE,24.45118,54.39696,1807000,13442,1851420.81,596373.79,135324.05,53503.48
233,Sharjah,AE,25.33737,55.41206,1800000,13416,4341245.86,1111245.79,40797.06,19246.23
234,Bhopal,IN,23.25469,77.40289,1798218,13410,5142331.59,31260.56,156.83,539.14
235,Jiangmen,CN,22.58333,113.08333,1795459,13399,2376047.38,166958.38,7550.82,0.0
236,Diyarbakır,TR,37.91363,40.21721,1791373,13384,1748648.99,233601.86,95772.9,0.0
237,Benin City,NG,6.33815,5.62575,1782000,13349,6037701.04,10006.26,0.0,0.0
238,Jiangyin,CN,31.91102,120.26302,1779515,13340,1936682.03,4247.77,0.0,1233.51
239,Davao,PH,7.07306,125.61278,1776949,13330,2549705.68,369612.48,26639.25,284146.43
240,Fuyang,CN,32.9,115.81667,1768947,13300,1843176.45,38891.51,914.72,13061.47
241,Montréal,CA,45.50884,-73.58781,1762949,13278,4919962.73,6449740.32,4937922.83,902920.87
242,Bayan Nur,CN,40.74143,107.38599,1760000,13266,958281.3,19340.69,0.0,0.0
243,Maracaibo,VE,10.64232,-71.61089,1752602,13239,3933159.03,90718.96,26503.72,112850.63
244,Chaozhou,CN,23.65396,116.62262,1750945,13232,2135999.14,17983.95,71.59,33632.37
245,Minsk,BY,53.90019,27.56653,1742124,13199,1858479.84,5465331.38,225402.23,229009.88
246,Budapest,HU,47.49835,19.04045,1741041,13195,3732128.27,3008201.51,951025.58,1367435.4
247,Qingyuan,CN,23.7,113.03333,1738424,13185,1533937.11,153332.08,42500.77,0.0
248,Tai’an,CN,36.18528,117.12,1735425,13174,1664652.53,98806.39,4734.23,0.0
249,Rasapūdipalem,IN,17.73308,83.31622,1728128,13146,2244135.29,91415.06,7972.73,0.0
250,Pimpri-Chinchwad,IN,18.61867,73.80375,1727692,13144,4226441.02,214491.24,32726.16,52938.12
251,Warsaw,PL,52.22977,21.01178,1702139,13047,3065975.8,8025835.13,2117879.09,895929.12
252,Soweto,ZA,-26.26781,27.85849,1695047,13019,4133890.47,200298.0,9020.21,2388.97
253,Puebla,MX,19.04778,-98.20723,1692181,13008,6813420.07,298712.18,44024.97,200062.87
254,Vienna,AT,48.20849,16.37208,1691468,13006,3156551.27,4681725.99,1090085.7,1575108.71
255,Patna,IN,25.59408,85.13563,1684297,12978,3775653.26,58386.85,1029.01,0.0
256,Mosul,IQ,36.335,43.11889,1683000,12973,3811673.47,32309.93,4387.26,0.0
257,Kallakurichi,IN,11.73379,78.95925,1682687,12972,1471018.36,864.75,0.0,0.0
258,Kampala,UG,0.31628,32.58219,1680600,12964,4661439.07,241701.32,3227.93,22851.56
259,Xining,CN,36.62554,101.75739,1677177,12951,1234580.77,32827.64,101.72,0.0
260,Changshu,CN,31.64615,120.74221,1677050,12950,1816586.3,44107.7,721.97,588.06
261,Palembang,ID,-2.91673,104.7458,1668848,12918,3824261.05,72470.72,53.45,1264.91
262,Huainan,CN,32.62639,116.99694,1666826,12911,1350640.78,14753.86,427.66,4425.81
263,Caloocan City,PH,14.64953,120.96788,1661584,12890,4380994.95,647787.04,202949.73,1682843.66
264,Rabat,MA,34.01325,-6.83255,1655753,12868,2615479.54,525455.53,165671.47,102124.98
265,Semarang,ID,-6.99306,110.42083,1653524,12859,3901479.54,79384.77,348.67,1190.18
266,Recife,BR,-8.05389,-34.88111,1653461,12859,3583806.46,548813.75,178100.85,28911.33
267,Phoenix,US,33.44838,-112.07404,1650070,12846,3998241.17,4312962.14,3624222.35,148910.02
268,Suzhou,CN,33.63611,116.97889,1647642,12836,963015.98,11232.12,2184.48,0.0
269,Ecatepec de Morelos,MX,19.60492,-99.06064,1645352,12827,7239416.65,605633.75,15532.5,74117.34
270,Lu’an,CN,31.73561,116.51688,1644344,12823,1377011.65,5905.75,0.0,0.0
271,Barcelona,ES,41.38879,2.15899,1620343,12729,2975015.61,4182863.32,2605212.82,297280.9
272,Valencia,VE,10.16153,-68.00044,1619470,12726,3282384.22,105317.47,1356.47,144182.57
273,Ludhiana,IN,30.91204,75.85379,1618879,12724,5638888.03,2319.9,0.0,80322.05
274,Yancheng,CN,33.3575,120.1573,1615717,12711,1905679.45,6749.86,288.06,0.0
275,Novosibirsk,RU,55.03442,82.94339,1612833,12700,1755090.26,1201827.49,141285.2,16045.11
276,Erbil,IQ,36.19117,44.00943,1612700,12699,4704197.06,422565.6,286362.61,44183.28
277,Fukuoka,JP,33.6,130.41667,1612392,12698,5754683.72,1262001.29,652978.51,14436.79
278,Taizhou,CN,32.49069,119.90812,1607108,12677,1517806.63,3797.52,0.0,0.0
279,Daqing,CN,46.58333,125.0,1604027,12665,1217241.1,51896.63,230.01,0.0
280,Manila,PH,14.6042,120.9822,1600000,12649,4368968.25,839769.1,297191.21,1963345.08
281,Wuhu,CN,31.35259,118.42947,1598165,12642,1225932.43,32386.97,2008.7,0.0
282,Santiago de Querétaro,MX,20.58806,-100.38806,1594212,12626,4599865.75,397243.93,22608.11,932632.11
283,Dazhou,CN,31.2106,107.46308,1589435,12607,877307.27,38393.73,1030.16,0.0
284,Yangzhou,CN,32.39722,119.43583,1584237,12587,1972415.64,52426.39,2227.35,1233.15
285,León de los Aldama,MX,21.12908,-101.67374,1579803,12569,4787494.8,99129.79,2861.4,2726.46
286,Makkah,SA,21.42664,39.82563,1578722,12565,3403098.97,40783.42,1296.36,0.0
287,Philadelphia,US,39.95238,-75.16362,1573916,12546,5356708.84,2336583.88,1621130.4,569821.12
288,Phnom Penh,KH,11.56245,104.91601,1573544,12544,3848304.11,122155.03,623.41,30612.39
289,Guilin,CN,25.28022,110.29639,1572300,12539,1335822.42,63704.55,7833.05,6678.27
290,Damascus,SY,33.5102,36.29128,1569394,12528,3505889.89,110383.1,4916.74,18580.63
291,Quetta,PK,30.18414,67.00141,1565546,12512,2366455.65,6303.64,145.41,0.0
292,Zhaoqing,CN,23.04893,112.46091,1553109,12462,1242786.12,178411.09,26331.0,285006.92
293,Onitsha,NG,6.14978,6.78569,1553000,12462,2845181.92,18185.97,0.0,0.0
294,Mianyang,CN,31.46784,104.68168,1550000,12450,1636079.78,74942.35,16596.92,10706.61
295,Isfahan,IR,32.65246,51.67462,1547164,12439,5200275.05,525754.69,66515.38,119562.46
296,Harare,ZW,-17.82772,31.05337,1542813,12421,2927447.87,213122.54,2106.73,866.62
297,Monrovia,LR,6.30054,-10.7969,1542549,12420,1058487.61,153302.77,0.0,2260.72
298,Putian,CN,25.43944,119.01028,1539389,12407,1365127.51,35874.4,750.71,0.0
299,Kawasaki,JP,35.52056,139.71722,1538262,12403,5145834.92,1646949.65,856788.3,170596.72
300,Shangqiu,CN,34.45,115.65,1536392,12395,1689014.69,61295.6,0.0,0.0
301,Goiânia,BR,-16.67861,-49.25389,1536097,12394,5700505.1,185139.3,42045.83,10002.86
302,Auckland,NZ,-36.84853,174.76349,1530500,12371,1943147.51,3257906.72,2437360.62,456665.57
303,San Antonio,US,29.42412,-98.49363,1526656,12356,4038333.29,641213.02,282099.6,167061.93
304,Kobe,JP,34.6913,135.183,1525152,12350,3353190.78,1210334.24,526324.03,38322.6
305,Stockholm,SE,59.32938,18.06871,1515017,12309,3149541.98,3436460.98,488369.95,468477.36
306,Ciudad Juárez,MX,31.72024,-106.46084,1512450,12298,4941419.93,328196.91,67126.17,18415.26
307,Cần Thơ,VN,10.03711,105.78825,1507187,12277,1966583.95,127713.82,48144.62,28220.6
308,Khulna,BD,22.80979,89.56439,1500689,12250,1191988.65,62045.18,219.53,2007.97
309,Belém,BR,-1.45583,-48.50444,1499641,12246,1264528.78,153321.13,62537.03,47838.88
310,Yekaterinburg,RU,56.8519,60.6122,1495066,12227,1302838.4,2566858.67,857692.05,25243.32
311,Porto Alegre,BR,-30.03283,-51.23019,1488252,12199,2199202.16,252571.77,22274.69,700616.33
312,Yinchuan,CN,38.46806,106.27306,1487579,12197,1419898.73,35703.33,465.56,0.0
313,Manhattan,US,40.78343,-73.96625,1487536,12196,4614800.85,7516562.65,6273067.06,691127.04
314,Nashik,IN,19.99727,73.79096,1486053,12190,2808223.99,9937.2,748.96,1653.62
315,Taizhou,CN,28.66266,121.43312,1485502,12188,1322994.93,31106.8,3042.75,1502.37
316,Asunción,PY,-25.28646,-57.647,1482200,12175,2991740.59,402974.88,81323.97,47103.54
317,Yiwu,CN,29.31506,120.07676,1481384,12171,2030605.21,56906.11,731.37,185081.8
318,Zapopan,MX,20.72111,-103.38742,1476491,12151,5454042.56,487648.32,48859.12,88487.65
319,Daejeon,KR,36.34913,127.38493,1470336,12126,2163773.65,1327439.16,297166.06,37447.98
320,Adelaide,AU,-34.92866,138.59863,1469163,12121,3955466.22,2198657.05,1294395.8,435240.04
321,Quanzhou,CN,24.91389,118.58583,1469157,12121,1564016.54,88852.62,12784.28,0.0
322,Madurai,IN,9.919,78.11953,1465625,12106,3275448.11,37527.22,97.72,311403.73
323,Jinhua,CN,29.10678,119.64421,1463990,12100,1478685.26,85706.55,11580.03,0.0
324,Kyoto,JP,35.02107,135.75385,1463723,12098,4491965.04,1982440.74,830631.62,111728.72
325,Cixi,CN,30.1764,121.2457,1457510,12073,1056574.87,20970.61,0.0,0.0
326,Changde,CN,29.03205,111.69844,1457419,12072,1084902.85,23731.62,514.93,0.0
327,Kuala Lumpur,MY,3.1412,101.68653,1453975,12058,5685416.19,1154270.71,428201.87,71934.6
328,Kaifeng,CN,34.7986,114.30742,1451741,12049,1679323.76,58943.85,18494.66,0.0
329,Anshan,CN,41.12361,122.99,1450000,12042,1593345.95,53308.96,3091.92,9568.53
330,Karaj,IR,35.83266,50.99155,1448075,12034,2736589.7,179787.14,23284.56,23915.82
331,Kathmandu,NP,27.70169,85.3206,1442271,12009,3860953.17,687505.8,20929.49,65023.3
332,Baoji,CN,34.36775,107.23705,1437802,11991,1426778.91,37910.88,83.08,3149.73
333,Suqian,CN,33.94917,118.29583,1437685,11990,2091187.61,1088332.25,36713.93,0.0
334,Liuzhou,CN,24.32405,109.40698,1436599,11986,1497977.49,53967.44,3474.56,6183.22
335,Tirunelveli,IN,8.72742,77.6838,1435844,11983,1903949.61,16291.92,0.0,71335.9
336,Kayseri,TR,38.73222,35.48528,1434357,11976,3712612.84,88787.61,3009.04,28050.76
337,Kharkiv,UA,49.98177,36.25475,1433886,11974,2123160.13,1975263.75,229598.64,38899.12
338,Konya,TR,37.87135,32.48464,1433861,11974,3889407.97,75594.98,7417.55,3545.15
339,Zhangjiagang,CN,31.865,120.53889,1432044,11967,1795892.01,36862.18,35.34,0.0
340,Agra,IN,27.18333,78.01667,1430055,11958,3968745.8,49075.26,1294.49,50418.05
341,Tabriz,IR,38.08,46.2919,1424641,11936,2316304.55,140408.19,7791.16,7107.39
342,Makassar,ID,-5.14861,119.43194,1423877,11933,3036012.38,158485.65,4786.03,925.68
343,Jinjiang,CN,24.81978,118.57415,1416151,11900,1775174.73,68625.7,10913.05,0.0
344,Faridabad,IN,28.41124,77.31316,1414050,11891,4424704.73,150735.4,3374.62,49027.93
345,Gwangju,KR,35.15472,126.91556,1411357,11880,2040110.66,769726.44,181583.37,348885.84
346,Bozhou,CN,33.87722,115.77028,1409436,11872,903113.88,0.0,0.0,0.0
347,Qujing,CN,25.48333,103.78333,1408500,11868,781796.59,10767.35,57.53,350.1
348,South Tangerang,ID,-6.28862,106.71789,1404785,11852,6173802.45,238624.14,24892.32,186716.94
349,San Diego,US,32.71571,-117.16472,1404452,11851,2749150.66,1206369.19,709737.38,720459.99
350,Zhanjiang,CN,21.23391,110.38749,1400709,11835,1163584.54,100866.72,7607.86,2990.74
351,Fushun,CN,41.88669,123.94363,1400646,11835,672157.48,22818.63,35.97,0.0
352,Rājkot,IN,22.29161,70.79322,1390640,11793,3197663.29,15329.2,23.85,415.98
353,Luoyang,CN,34.67345,112.43684,1390581,11792,1838284.49,257638.54,9305.39,0.0
354,Guadalajara,MX,20.67738,-103.34749,1385629,11771,6656643.79,469227.28,42808.44,100793.48
355,The Bronx,US,40.84985,-73.86641,1385108,11769,3925876.38,4023286.87,3164770.9,213068.67
356,Guankou,CN,28.15861,113.62709,1380000,11747,479563.37,232.65,0.0,0.0
357,Huế,VN,16.4619,107.59546,1380000,11747,2061611.32,82827.5,19526.99,819.45
358,Milan,IT,45.46427,9.18951,1371498,11711,3499234.26,4294430.45,2892436.94,581790.21
359,Najafgarh,IN,28.60922,76.97982,1365000,11683,4869340.0,82329.29,3035.1,6372.75
360,N'Djamena,TD,12.10672,15.0444,1359526,11660,3680817.12,128324.57,0.0,1532.71
361,Handan,CN,36.60999,114.48764,1358318,11655,1192786.36,57002.94,1572.54,0.0
362,Bannu,PK,32.98527,70.60403,1357890,11653,828296.56,1324.32,0.0,0.0
363,Yichang,CN,30.71444,111.28472,1350150,11620,1326689.33,124839.04,0.0,0.0
364,Antananarivo,MG,-18.91368,47.53613,1349501,11617,1666024.3,642866.18,7881.01,5530.46
365,Heze,CN,35.23929,115.47358,1346717,11605,998964.4,64535.49,2646.57,0.0
366,Antalya,TR,36.90812,30.69556,1344000,11593,3073768.61,319298.62,146562.55,51401.79
367,Abobo,CI,5.41613,-4.0159,1340083,11576,3700347.73,322586.92,2934.74,19658.77
368,Jamshedpur,IN,22.80278,86.18545,1339438,11573,2511309.1,8799.41,10.58,6703.75
369,Douala,CM,4.04827,9.70428,1338082,11568,2639964.98,11256.01,0.0,44511.63
370,Basrah,IQ,30.50852,47.7804,1326564,11518,3408773.16,27920.56,652.72,13412.78
371,Dallas,US,32.78306,-96.80667,1326087,11516,3414445.78,1918954.91,1543158.37,385412.15
372,Saitama,JP,35.90807,139.65657,1324854,11510,7593793.93,997136.48,437375.28,32965.39
373,Gorakhpur,IN,29.44768,75.67206,1324570,11509,779656.94,0.0,0.0,0.0
374,Niamey,NE,13.51366,2.1098,1323691,11505,3536435.13,186084.1,28052.28,172125.33
375,Liupanshui,CN,26.59444,104.83333,1320825,11493,788350.05,21273.16,709.99,0.0
376,Maoming,CN,21.66625,110.91364,1307802,11436,1282761.62,53796.44,4278.14,1839.56
377,Calgary,CA,51.05011,-114.08529,1306784,11431,3220778.45,3411119.03,2388792.12,86220.43
378,Tripoli,LY,32.88743,13.18733,1302947,11415,3405975.4,41461.42,850.8,178477.93
379,Callao,PE,-12.05162,-77.13452,1300000,11402,2550984.06,1078398.97,488094.72,64520.58
380,Madinah,SA,24.46861,39.61417,1300000,11402,3955001.49,19356.02,1593.59,0.0
381,Yaoundé,CM,3.86667,11.51667,1299369,11399,4084624.92,58206.78,15.91,313249.86
382,Qinzhou,CN,21.98247,108.65061,1296300,11386,805849.71,15143.14,3603.05,0.0
383,Luohe,CN,33.56394,114.04272,1294974,11380,2095838.3,285757.44,15117.2,0.0
384,Xiangyang,CN,32.0422,112.14479,1294733,11379,1627058.65,431865.66,18254.62,0.0
385,Yangjiang,CN,21.85563,111.96272,1292987,11371,1003526.35,14773.52,3542.74,0.0
386,Yixing,CN,31.36059,119.82016,1285785,11339,967711.81,52743.53,228.58,0.0
387,Pimpri,IN,18.62292,73.80696,1284606,11334,3346738.08,141055.01,12298.59,40293.63
388,Da Nang,VN,16.06778,108.22083,1276000,11296,2162228.86,160655.14,87595.37,5349.92
389,Amman,JO,31.95522,35.94503,1275857,11295,5114370.67,69895.36,8000.77,61097.8
390,Budta,PH,7.20417,124.43972,1273715,11286,651807.73,14513.17,0.0,893.08
391,Belgrade,RS,44.80401,20.46513,1273651,11286,2185626.36,1408174.62,416094.26,322112.43
392,Biên Hòa,VN,10.94469,106.82432,1272235,11279,3643388.98,117890.38,51314.76,251673.72
393,Montevideo,UY,-34.90328,-56.18816,1270737,11273,2263383.76,274827.71,28145.56,794253.81
394,Xuchang,CN,34.03189,113.86299,1265536,11250,1194031.71,3542.2,1126.87,0.0
395,Kalyān,IN,19.2437,73.13554,1262255,11235,2188438.1,37958.3,3953.65,561.78
396,Zigong,CN,29.34162,104.77689,1262064,11234,786755.2,129192.6,1925.27,0.0
397,Munich,DE,48.13743,11.57549,1260391,11227,2528652.63,5240996.34,547996.68,1625109.92
398,Nizhniy Novgorod,RU,56.32867,44.00205,1259013,11221,1355603.39,1456098.54,165815.06,19693.48
399,Jepara,ID,-6.5924,110.671,1257912,11216,1576634.64,4958.2,0.0,0.0
400,Maputo,MZ,-25.96553,32.58322,1254837,11202,2564055.71,149145.18,1908.29,35220.7
401,Xuzhou,CN,34.20442,117.28386,1253991,11198,1175776.31,25094.29,5425.74,17176.0
402,Dammam,SA,26.43442,50.10326,1252523,11192,4294655.93,41345.43,4953.74,0.0
403,Ra’s Bayrūt,LB,33.9,35.48333,1251739,11188,1619400.06,53699.65,3363.91,223.01
404,Neijiang,CN,29.58354,105.06216,1251095,11185,824425.35,18192.3,2512.38,0.0
405,Shiraz,IR,29.61031,52.53113,1249942,11180,3173297.82,288818.82,69745.09,108910.22
406,Heshan,CN,28.56938,112.34733,1249807,11179,1389615.4,92527.84,11772.92,0.0
407,Dombivali,IN,19.21667,73.08333,1247327,11168,2312501.16,51390.49,3410.19,2059.14
408,Kananga,CD,-5.89624,22.41659,1247168,11168,998160.11,3965.87,0.0,0.0
409,Kazan,RU,55.78874,49.12214,1243500,11151,1443397.21,1590296.47,562588.39,42902.42
410,Jining,CN,35.405,116.58139,1241012,11140,1189671.68,18388.85,553.53,7399.39
411,Barquisimeto,VE,10.0647,-69.35703,1240714,11139,2511641.54,34283.11,1193.12,75483.71
412,Shubrā al Khaymah,EG,30.12511,31.25053,1240289,11137,7953776.81,276183.93,1295.42,16950.13
413,Port-au-Prince,HT,18.54349,-72.33881,1234742,11112,2152422.96,423762.33,1588.01,3143.49
414,Xinyang,CN,32.12278,114.06556,1230042,11091,667839.53,20526.39,12.62,1886.55
415,Liaocheng,CN,36.45064,116.00247,1229768,11089,1325709.89,43000.76,13409.94,0.0
416,Jinzhong,CN,37.68403,112.75471,1226617,11075,919227.13,11737.97,179.98,0.0
417,Meerut,IN,28.98002,77.70636,1223184,11060,2735194.02,10752.23,46.48,0.0
418,Virār,IN,19.45591,72.81136,1222390,11056,1081652.58,15410.63,0.0,2363.95
419,Nowrangapur,IN,19.23114,82.54826,1220946,11050,127210.09,0.0,0.0,0.0
420,Karbala,IQ,32.61603,44.02488,1218732,11040,2487652.67,30628.48,2171.09,8624.82
421,Changzhi,CN,36.18389,113.10528,1214940,11022,1248767.21,61122.0,423.48,0.0
422,Tianshui,CN,34.57952,105.74238,1212791,11013,1042879.28,27662.58,0.0,3133.64
423,Mombasa,KE,-4.05466,39.66359,1208333,10992,1216666.1,129602.22,325.21,0.0
424,Mandalay,MM,21.97473,96.08359,1208099,10991,3174994.87,71049.25,0.0,351.36
425,Srinagar,IN,34.08565,74.80555,1206419,10984,2324816.7,62765.81,0.0,18912.29
426,Barranquilla,CO,10.96854,-74.78132,1206319,10983,2449943.42,416457.07,125657.03,29269.12
427,Chelyabinsk,RU,55.15402,61.42915,1202371,10965,1351977.32,1247105.68,84143.96,19905.64
428,Mérida,MX,20.967,-89.62318,1201000,10959,4632178.54,609433.94,310280.13,43609.21
429,Hiroshima,JP,34.4,132.45,1200754,10958,3743692.51,1321136.87,895416.33,7729.54
430,Shymkent,KZ,42.30988,69.60042,1200000,10954,2374569.53,104890.39,13432.23,5637.94
431,Santiago de los Caballeros,DO,19.45036,-70.69085,1200000,10954,2779265.23,39713.41,3870.51,12876.27
432,Weinan,CN,34.50355,109.50891,1199290,10951,799914.77,12002.56,1428.07,0.0
433,Ghāziābād,IN,28.66535,77.43915,1199191,10951,4773091.68,42459.83,8805.18,2053.53
434,Matola,MZ,-25.96222,32.45889,1198988,10950,2892685.34,68973.19,760.58,18012.19
435,Dhanbad,IN,23.79759,86.42992,1196214,10937,2106830.27,4453.31,2444.19,1507.64
436,Hong Kong Island,HK,22.26302,114.18419,1195529,10934,975526.57,2633387.39,842105.5,525180.8
437,Suwon,KR,37.29111,127.00889,1195045,10932,2540530.92,986066.25,192575.79,84661.4
438,Fes,MA,34.03313,-5.00028,1191905,10917,2126932.04,120493.32,3182.92,1877.19
439,Gustavo Adolfo Madero,MX,19.49392,-99.11075,1185772,10889,6118203.08,917535.51,189951.08,649228.18
440,Nouakchott,MR,18.08581,-15.9785,1184530,10884,3995130.48,57187.33,9.58,97.47
441,Kisangani,CD,0.51528,25.19099,1181788,10871,1174975.97,103450.16,220.88,0.0
442,Jiaxing,CN,30.7522,120.75,1180000,10863,1639086.83,91647.65,6033.04,3860.32
443,Aurangabad,IN,19.87757,75.34226,1175116,10840,2637754.07,21282.8,3397.69,504.51
444,Omsk,RU,54.99244,73.36859,1172070,10826,1364900.73,1245899.11,204614.96,46253.07
445,Guarulhos,BR,-23.46278,-46.53333,1169577,10815,4287077.05,475592.43,260720.1,64683.36
446,Bandar Lampung,ID,-5.42917,105.26111,1166066,10798,2311417.54,26756.55,1075.16,0.0
447,Prague,CZ,50.08804,14.42076,1165581,10796,2498025.13,4791304.62,1171076.3,436250.92
448,Varanasi,IN,25.31668,83.01041,1164404,10791,3980779.6,28579.83,0.0,72403.85
449,Batam,ID,1.14937,104.02491,1164352,10791,1570155.3,134553.06,349.35,4010.96
450,Jiujiang,CN,29.70475,116.00206,1164268,10790,909525.31,28160.46,2101.68,14.52
451,Samara,RU,53.20007,50.15,1163399,10786,1030997.71,866115.47,136437.29,183018.95
452,Aba,NG,5.10658,7.36667,1160000,10770,2596325.53,4607.97,0.0,0.0
453,Amritsar,IN,31.62234,74.87534,1159227,10767,3338258.24,18724.07,0.0,1390.4
454,Birmingham,GB,52.48142,-1.89983,1157603,10759,3653408.04,1747620.03,332756.39,538840.46
455,Copenhagen,DK,55.67594,12.56553,1153615,10741,2479915.41,1808979.64,89631.02,1596446.59
456,Sofia,BG,42.69751,23.32415,1152556,10736,2238932.41,1591676.14,494010.5,838535.94
457,Anyang,CN,36.096,114.38278,1146839,10709,1486356.68,16117.76,18.46,0.0
458,Luohu District,CN,22.54721,114.13149,1143801,10695,1849743.12,1410004.57,381851.0,285205.82
459,Vijayawada,IN,16.50745,80.6466,1143232,10692,2548636.34,22012.92,381.31,13109.21
460,Yerevan,AM,40.17765,44.5126,1141100,10682,1542834.12,662886.06,370237.1,68394.57
461,Bijie,CN,27.30193,105.28627,1137383,10665,566840.43,14591.17,0.0,0.0
462,Monterrey,MX,25.68435,-100.31721,1135512,10656,5130090.14,539110.5,110208.67,19836.93
463,Kigali,RW,-1.94995,30.05885,1132686,10643,2272183.34,490494.95,4420.45,66396.58
464,Rostov-na-Donu,RU,47.23135,39.72328,1130305,10632,1821537.54,1019492.87,116549.26,28497.25
465,Zhuzhou,CN,27.83333,113.15,1129687,10629,1060825.55,19432.27,1901.49,0.0
466,Bogor,ID,-6.59444,106.78917,1127408,10618,2928927.89,170918.1,6295.97,13759.73
467,Malingao,PH,7.16083,124.475,1121974,10592,489718.76,15518.6,0.0,739.51
468,Touba,SN,14.85,-15.88333,1120824,10587,4290470.83,8416.73,0.0,0.0
469,Ufa,RU,54.74306,55.96779,1120547,10586,963246.82,764095.73,148907.5,12793.87
470,Ranchi,IN,23.34316,85.3094,1120374,10585,3282040.23,12488.56,0.0,16627.98
471,Baku,AZ,40.37767,49.89201,1116513,10567,1020588.19,394887.65,85342.79,10759.77
472,Shangrao,CN,28.45179,117.94287,1116486,10566,1027261.03,92595.83,43992.92,3539.08
473,Lilongwe,MW,-13.96692,33.78725,1115815,10563,2629749.43,667211.89,642.57,27357.39
474,Huaibei,CN,33.97444,116.79167,1113321,10551,627724.39,11183.6,14.78,0.0
475,Maiduguri,NG,11.84692,13.15712,1110000,10536,2758045.29,44590.72,0.0,0.0
476,Meishan,CN,30.04392,103.83696,1107742,10525,875919.24,20400.14,0.0,0.0
477,Ciudad Nezahualcoyotl,MX,19.40061,-99.01483,1104585,10510,5819787.91,468969.63,118087.17,240049.46
478,Mwanza,TZ,-2.51667,32.9,1104521,10510,1550076.3,442930.36,289.66,35903.74
479,Ulsan,KR,35.53722,129.31667,1098728,10482,1173273.02,426474.64,14987.38,7806.56
480,Sendai,JP,38.26667,140.86667,1096704,10472,4542764.43,1516244.34,914317.3,33306.61
481,Krasnoyarsk,RU,56.02668,92.90765,1090811,10444,1101038.1,955644.91,260404.89,108465.82
482,Fuzhou,CN,27.95999,116.33333,1089888,10440,667571.2,3585.56,953.53,0.0
483,Guigang,CN,23.11603,109.59472,1086327,10423,536922.18,700.41,324.41,0.0
484,Pekanbaru,ID,0.51667,101.44167,1085000,10416,2921219.26,143349.91,6775.8,74971.73
485,Oslo,NO,59.91273,10.74609,1082575,10405,1576603.85,3479384.29,1046884.84,179728.31
486,Jabalpur,IN,23.16697,79.95006,1081677,10400,2353341.79,2754.05,43.08,12693.35
487,Ilorin,NG,8.49664,4.54214,1080000,10392,3312196.8,24373.43,0.0,0.0
488,Aden,YE,12.77944,45.03667,1079670,10391,464843.25,9489.48,0.0,1984.14
489,Hengyang,CN,26.88946,112.61888,1075516,10371,1582016.11,81545.48,12583.46,0.0
490,Goyang-si,KR,37.65639,126.835,1074784,10367,2140899.34,1322642.08,751198.31,65971.65
491,Prayagraj,IN,25.44478,81.84322,1073438,10361,2333893.24,50471.73,350.52,1556.51
492,Visakhapatnam,IN,17.68009,83.20161,1063178,10311,1770626.4,22247.16,1684.22,154.15
493,Yulin,CN,22.6305,110.14686,1056743,10280,737310.42,14404.08,3854.61,0.0
494,Jodhpur,IN,26.26841,73.00594,1056191,10277,3737417.21,19510.76,594.81,0.0
495,Gwalior,IN,26.22983,78.17337,1054420,10268,2462711.61,9634.76,0.0,24080.13
496,Jingzhou,CN,30.35028,112.19028,1052282,10258,916045.35,25371.22,3577.53,0.0
497,Port Elizabeth,ZA,-33.96109,25.61494,1050078,10247,1414407.88,154937.0,5755.25,2468.95
498,Tbilisi,GE,41.69143,44.83412,1049498,10245,1656782.32,1112059.45,386626.8,84237.64
499,Voronezh,RU,51.67204,39.1843,1047549,10235,1316265.83,1116205.41,114392.81,7611.71
500,Xinxiang,CN,35.19033,113.80151,1047088,10233,883887.79,0.0,0.0,0.0
501,Yichun,CN,27.83333,114.4,1045952,10227,671136.94,2702.87,0.0,0.0
502,Jos,NG,9.92849,8.89212,1040000,10198,1607509.33,53654.33,0.0,0.0
503,Sokoto,NG,13.06269,5.24322,1040000,10198,3031784.43,160984.16,0.0,0.0
504,Tangier,MA,35.76727,-5.79975,1035141,10174,1822581.3,193475.31,32176.16,6160.36
505,Teni,IN,10.01115,77.47772,1034724,10172,781297.98,3118.92,0.0,0.0
506,Xianyang,CN,34.33778,108.70261,1034081,10169,1307700.18,28603.73,3049.36,0.0
507,Mexicali,MX,32.62781,-115.45446,1032686,10162,3514386.22,76499.68,12109.53,10750.48
508,Pointe-Noire,CG,-4.77609,11.86352,1032000,10159,2902324.26,85900.57,231.7,0.0
509,Maceió,BR,-9.66583,-35.73528,1031597,10157,1169739.88,102562.22,8830.66,14570.48
510,Campinas,BR,-22.90556,-47.06083,1031554,10157,3325953.91,125766.41,4724.55,43056.3
511,Sanya,CN,18.25435,109.50947,1031396,10156,664037.85,48002.57,2167.99,145.64
512,Rangpur,BD,25.74664,89.25166,1031388,10156,893133.74,39264.05,0.0,0.0
513,Kirkuk,IQ,35.46806,44.39222,1031000,10154,2686176.85,67967.41,39.45,0.0
514,Comilla,BD,23.46186,91.18503,1030000,10149,1018227.17,34514.65,172.87,6685.61
515,Shaoguan,CN,24.8,113.58333,1028460,10141,611050.45,14727.76,3384.65,0.0
516,Howrah,IN,22.57688,88.31857,1027672,10137,3851746.77,91353.57,4152.8,20590.48
517,Raipur,IN,21.23333,81.63333,1027264,10135,2886645.4,16534.92,3161.9,50588.68
518,Changwon,KR,35.22806,128.68111,1025702,10128,1404783.17,628480.18,74746.08,8617.31
519,Longyan,CN,25.07485,117.01775,1025087,10125,610174.51,31057.0,13.92,0.0
520,Dublin,IE,53.33306,-6.24889,1024027,10119,2279094.84,2455148.27,1291566.08,592648.36
521,Tiruchirappalli,IN,10.8155,78.69651,1022518,10112,2406481.91,8440.46,20.16,62715.93
522,Yongzhou,CN,26.42389,111.61306,1020715,10103,465416.18,86929.73,45981.28,0.0
523,Brussels,BE,50.85045,4.34878,1019022,10095,2690402.4,2548859.98,1223771.29,606694.76
524,Ottawa,CA,45.41117,-75.69812,1017449,10087,2191806.48,3081953.63,2006524.61,1874168.91
525,Huzhou,CN,30.8703,120.0933,1015937,10079,1062020.09,66539.51,251.03,757.92
526,Odesa,UA,46.48572,30.74383,1015826,10079,944520.45,446581.89,76152.12,66147.58
527,Volgograd,RU,48.71939,44.50183,1013533,10067,1297637.33,562297.56,82962.46,8931.63
528,Khartoum North,SD,15.64925,32.53458,1012211,10061,4962140.53,23991.84,1576.89,17393.24
529,Edmonton,CA,53.55014,-113.46871,1010899,10054,2409146.97,1688091.34,1066192.03,276778.38
530,Wuwei,CN,37.92672,102.63202,1010295,10051,693939.88,4107.1,944.08,0.0
531,Jacksonville,US,30.33218,-81.65565,1009833,10049,2525609.63,1720359.29,1622287.09,301683.86
532,Arequipa,PE,-16.39899,-71.53747,1008290,10041,3163026.99,285190.9,134970.88,45138.31
533,Fort Worth,US,32.72541,-97.32085,1008106,10040,2787563.34,604748.8,338310.19,33406.28
534,Hanzhong,CN,33.07507,107.02214,1006557,10033,944465.65,14339.55,527.13,0.0
535,Hezhou,CN,24.40357,111.56675,1005490,10027,423772.21,17125.76,190.95,0.0
536,Kota,IN,25.18254,75.83907,1001694,10008,2707954.06,9854.7,467.83,6890.71
537,Shivaji Nagar,IN,18.53017,73.85263,1000000,10000,3422414.34,230337.51,34775.8,56049.32
538,Zhu Cheng City,CN,35.99502,119.40259,1000000,10000,596371.69,20670.1,641.39,0.0
539,Dongying,CN,37.46271,118.49165,998968,9995,1073916.43,15490.73,0.0,0.0
540,Luzhou,CN,28.8903,105.42575,998900,9994,1280250.8,48676.23,19258.99,0.0
541,San Jose,US,37.33939,-121.89496,997368,9987,3136763.58,5319062.95,4914980.68,304644.0
542,Sholapur,IN,17.67152,75.91044,997281,9986,1592924.25,1285.99,160.07,40511.63
543,Marrakesh,MA,31.63416,-7.99994,995871,9979,2563879.0,241818.7,27628.91,4503.06
544,Guatemala City,GT,14.64072,-90.51327,994938,9975,3246232.53,137797.46,24585.5,24916.24
545,Meizhou,CN,24.28859,116.11768,992351,9962,1193905.38,190379.42,125692.12,15156.17
546,Yueyang,CN,29.37455,113.09481,991465,9957,878358.4,61096.59,500.02,44798.54
547,Laiwu,CN,36.19278,117.65694,989535,9948,747205.26,19611.78,605.08,0.0
548,Benxi,CN,41.28861,123.765,987717,9938,477844.3,5177.21,56.09,0.0
549,Perm,RU,58.01046,56.25017,982419,9912,727637.58,1512139.57,422438.39,25751.06
550,Zaria,NG,11.11128,7.7227,980000,9899,1654314.72,49120.05,0.0,0.0
551,Chiba,JP,35.6,140.11667,979768,9898,3842879.37,700319.92,214701.0,19803.41
552,Pingdingshan,CN,33.73847,113.30119,979130,9895,1100870.73,47988.12,1899.35,0.0
553,Ciudad Guayana,VE,8.35122,-62.64102,978202,9890,1252609.5,92697.13,4538.64,321176.1
554,Zamboanga,PH,6.91028,122.07389,977234,9886,867625.99,46244.89,1275.65,12016.36
555,Sargodha,PK,32.08586,72.67418,975886,9879,1342655.46,3634.5,0.0,0.0
556,Austin,US,30.26715,-97.74306,974447,9871,2230482.93,2528272.3,2060533.13,436940.43
557,Managua,NI,12.13282,-86.2504,973087,9865,1791684.8,141811.61,6767.48,5634.0
558,Bengbu,CN,32.94083,117.36083,972784,9863,1053072.85,22478.66,462.72,20203.98
559,Salé,MA,34.0531,-6.79846,972299,9861,1749392.8,380932.04,132127.57,90690.79
560,Jerusalem,IL,31.76904,35.21633,971800,9858,2048844.78,738710.39,78320.58,61438.26
561,Chandigarh,IN,30.73629,76.7884,970602,9852,2875357.16,146574.71,6015.5,23405.07
562,Dnipro,UA,48.46664,35.04066,968502,9841,1402557.54,1015318.51,181077.7,157697.59
563,Cebu City,PH,10.31672,123.89071,964169,9819,1733243.68,248221.65,24196.4,107665.99
564,Köln,DE,50.93333,6.95,963395,9815,1951356.26,2325178.44,37579.59,1097635.8
565,Tiruppur,IN,11.11541,77.35456,963173,9814,2726548.15,1658.24,0.0,0.0
566,Guwahati,IN,26.1844,91.7458,962334,9810,2069974.33,64402.74,41442.41,1883.48
567,Xiangtan,CN,27.85,112.9,959303,9794,940769.84,110996.63,19840.4,0.0
568,Linfen,CN,36.08889,111.51889,959198,9794,573307.24,0.0,0.0,0.0
569,Victoria,HK,22.2875,114.14417,956800,9782,966990.89,2511801.42,851887.31,523378.73
570,Zhenjiang,CN,32.21086,119.45508,950516,9749,908183.16,39258.43,11029.62,135684.96
571,Enugu,NG,6.44132,7.49883,950000,9747,2143466.99,28075.9,237.45,0.0
572,Rosario,AR,-32.94682,-60.63932,948312,9738,1946809.96,254282.24,155934.61,911342.23
573,Sulţānah,SA,24.49258,39.58572,946697,9730,2761298.18,16515.83,1593.59,0.0
574,Hubballi,IN,15.34776,75.13378,943788,9715,1808266.28,10636.22,0.0,0.0
575,Kitakyushu,JP,33.85181,130.85034,940978,9700,2833618.96,454604.57,242774.8,0.0
576,Taiz,YE,13.57952,44.02091,940600,9698,709045.53,576.54,0.0,0.0
577,Setagaya,JP,35.64188,139.64715,940071,9696,6082631.67,2239740.55,1196683.55,204873.36
578,Kingston,JM,17.99702,-76.79358,937700,9683,1535958.16,96202.25,5010.39,29630.31
579,Baoshan,CN,25.11626,99.16366,935618,9673,515932.4,14929.85,0.0,0.0
580,Rui’an,CN,27.77605,120.65859,927383,9630,1198902.49,4255.04,17.37,1836.51
581,Chihuahua,MX,28.63528,-106.08889,925762,9622,3242809.86,238867.83,12478.51,38002.4
582,Nay Pyi Taw,MM,19.745,96.12972,925000,9618,1496575.07,51939.15,0.0,2788.7
583,Mysuru,IN,12.29791,76.63925,920550,9595,3741655.46,53949.42,3958.56,114773.3
584,Trujillo,PE,-8.11599,-79.02998,919899,9591,2217972.87,80284.45,20728.51,2049.9
585,Salem,IN,11.65376,78.15538,917414,9578,2259971.46,4251.41,134.95,71012.23
586,São Luís,BR,-2.52972,-44.30278,917237,9577,1574269.98,92352.65,43920.47,10165.17
587,Seongnam-si,KR,37.43861,127.13778,914832,9565,1724229.91,1021316.86,294527.09,86477.42
588,Cartagena,CO,10.39817,-75.49328,914552,9563,1414706.64,342739.53,115238.72,4511.3
589,Columbus,US,39.96118,-82.99879,913175,9556,2323878.9,1562853.59,1270540.86,1901890.95
590,Sialkot,PK,32.49268,74.53134,911817,9549,1496176.82,2542.01,0.0,59278.41
591,Charlotte,US,35.22709,-80.84313,911311,9546,2212310.04,2416680.6,2089023.36,138949.97
592,Laibin,CN,23.74743,109.22222,910282,9541,545067.11,1079.95,974.35,0.0
593,Warri,NG,5.51737,5.75006,910000,9539,1203601.25,6632.91,0.0,0.0
594,Naples,IT,40.85216,14.26811,909048,9534,1987782.21,678183.39,437380.93,86100.64
595,Padang,ID,-0.94924,100.35427,909040,9534,1335812.64,40314.85,172.56,546.76
596,Xiaogan,CN,30.92689,113.92221,908266,9530,666124.19,16311.67,62.61,0.0
597,Campo Grande,BR,-20.44278,-54.64639,906092,9519,2654980.33,186517.6,64749.24,2142.2
598,Ziyang,CN,30.12108,104.64811,905729,9517,677163.94,3813.37,125.33,0.0
599,Bobo-Dioulasso,BF,11.17715,-4.2979,904920,9513,2093261.48,44326.28,0.0,0.0
600,Bahawalpur,PK,29.39779,71.6752,903795,9507,1191651.5,6554.53,0.0,0.0
601,Quzhou,CN,28.95944,118.86861,902767,9501,1039903.12,246468.35,2152.54,0.0
602,Blantyre,MW,-15.78499,35.00854,902588,9500,1473227.13,410598.63,160.01,0.0
603,Donetsk,UA,48.023,37.80224,901645,9495,1623631.14,387795.85,16008.99,2444.52
604,Bishkek,KG,42.87,74.59,900000,9487,2295323.73,680249.97,161161.92,30442.26
605,Qom,IR,34.6401,50.8764,900000,9487,1874025.87,229941.6,6879.74,7762.13
606,Abū Ghurayb,IQ,33.30563,44.18477,900000,9487,1347412.97,3967.18,0.0,3602.87
607,Zaozhuang,CN,34.86472,117.55417,899753,9486,699358.39,3470.01,0.0,0.0
608,Krasnodar,RU,45.04484,38.97603,899541,9484,1637230.6,889656.86,371571.51,35426.63
609,Natal,BR,-5.795,-35.20944,896708,9469,1954750.19,147579.35,25413.26,32251.93
610,Pingxiang,CN,27.61672,113.85353,893550,9453,551695.25,1066.56,80.79,0.0
611,Indianapolis,US,39.76838,-86.15804,887642,9421,2262067.12,2028754.08,1830995.2,29882.41
612,Antipolo,PH,14.62578,121.12251,887399,9420,3731408.75,447055.97,93265.34,828109.84
613,Gurugram,IN,28.4601,77.02635,886519,9416,3396343.45,64531.94,2011.62,13112.89
614,Bhubaneswar,IN,20.27241,85.83385,885363,9409,2613559.08,25423.62,1166.23,11005.29
615,Zhoushan,CN,29.98869,122.20488,882932,9396,525863.55,44698.1,937.97,0.0
616,Qiqihar,CN,47.33922,123.96154,882364,9393,774927.52,43783.04,5308.94,8161.06
617,Klang,MY,3.03667,101.44333,879867,9380,2839108.42,166777.51,49386.84,28850.04
618,As Sulaymānīyah,IQ,35.56496,45.4329,878146,9371,2741210.87,84710.89,4655.91,0.0
619,Puning,CN,23.31072,116.16869,874954,9354,686950.11,5296.8,0.0,0.0
620,Pikine,SN,14.76457,-17.39071,874062,9349,2646891.91,44807.81,761.46,7628.07
621,Bhiwandi,IN,19.30023,73.05881,874032,9349,1062423.12,15223.96,1082.33,1063.94
622,Soshanguve,ZA,-25.47288,28.09919,872309,9340,2167902.5,125359.81,4759.22,0.0
623,Teresina,BR,-5.08917,-42.80194,871126,9333,3146098.72,64310.52,13689.28,138309.17
624,Marseille,FR,43.29695,5.38107,870731,9331,1532738.96,953611.1,155082.66,141083.01
625,Ankang,CN,32.68,109.01722,870126,9328,541529.84,1388.74,0.0,0.0
626,Jalandhar,IN,31.32556,75.57917,868929,9322,2952625.89,2303.63,0.0,35864.15
627,Langfang,CN,39.52079,116.71471,868066,9317,1112748.24,2566.75,1596.72,0.0
628,Jiaozuo,CN,35.23925,113.23914,865413,9303,723569.66,11934.17,39.06,0.0
629,Rohini,IN,28.74322,77.06778,860000,9274,3813201.31,68183.29,3995.06,15558.02
630,Wanxian,CN,30.81601,108.37407,859662,9272,670982.84,13897.0,209.17,0.0
631,Guang’an,CN,30.47413,106.63696,858159,9264,670667.8,3002.18,0.0,0.0
632,Johor Bahru,MY,1.4655,103.7578,858118,9263,1943084.58,630396.69,32153.29,98096.82
633,Cheongju-si,KR,36.63722,127.48972,853938,9241,1382138.11,301330.29,74347.51,3926.62
634,Kanayannur,IN,9.96667,76.26667,851406,9227,1815541.62,51704.86,1663.52,285321.03
635,Tegucigalpa,HN,14.0818,-87.20681,850848,9224,2115601.61,307906.79,14543.14,5570.17
636,Bucheon-si,KR,37.49889,126.78306,850731,9224,2059934.67,766407.86,192565.58,168976.22
637,Thanh Hóa,VN,19.8,105.76667,850000,9220,1912268.54,11545.89,0.0,0.0
638,Turin,IT,45.07049,7.68682,847287,9205,2384389.52,809831.52,202558.75,850766.05
639,Malang,ID,-7.9797,112.6304,847182,9204,2621675.1,96093.89,13636.83,2408.48
640,Al Ain City,AE,24.19167,55.76056,846747,9202,1936617.35,214815.4,23013.34,35764.26
641,Libreville,GA,0.39241,9.45356,846090,9198,972545.14,21311.05,3582.48,18139.12
642,Saratov,RU,51.54056,46.00861,844858,9192,1053102.34,768263.45,115431.03,21270.46
643,Ulan Bator,MN,47.90771,106.88324,844818,9191,2051159.1,459089.9,37568.52,12433.16
644,Weihai,CN,37.50914,122.11356,844310,9189,596976.26,71683.97,5620.04,0.0
645,Takeo,KH,10.99081,104.78498,843931,9187,464843.31,2070.85,169.83,0.0
646,Cochabamba,BO,-17.38195,-66.15995,841276,9172,2800135.36,509248.86,127512.88,1022385.62
647,Ahvaz,IR,31.31901,48.6842,841145,9171,2372299.69,252602.84,963.93,3670.7
648,Zhabei,CN,31.25861,121.45972,840000,9165,2116921.01,469217.32,84057.44,32437.1
649,Xinyu,CN,27.80429,114.93335,839488,9162,572794.71,13731.15,4313.72,0.0
650,Pietermaritzburg,ZA,-29.61679,30.39278,839327,9161,1427266.1,26657.31,927.2,282.51
651,Yibin,CN,28.7593,104.63994,836340,9145,697457.26,51989.43,1230.75,0.0
652,Naucalpan de Juárez,MX,19.47851,-99.23963,834434,9135,3840944.19,296490.3,16719.82,137250.75
653,Kampung Baru Subang,MY,3.15,101.53333,833571,9130,2302430.04,430028.12,85169.77,51478.35
654,Bouaké,CI,7.69385,-5.03031,832371,9123,1487496.9,122050.98,0.0,0.0
655,Samarinda,ID,-0.49167,117.14583,831460,9118,1835778.17,33052.85,601.61,3619.65
656,Taicang,CN,31.44778,121.09389,831113,9117,897665.95,2057.47,0.0,0.0
657,San Francisco,US,37.77493,-122.41942,827526,9097,1710756.65,1536107.23,983285.56,859783.85
658,Sakai,JP,34.58216,135.46653,826161,9089,3922951.54,1128900.86,749430.13,12957.19
659,Valencia,ES,39.47391,-0.37966,825948,9088,2318243.79,1565469.98,916014.1,268301.42
660,Nova Iguaçu,BR,-22.75917,-43.45111,823302,9074,2728323.26,111475.43,11333.68,37740.25
661,Chenzhou,CN,25.8,113.03333,822534,9069,595661.87,36140.21,10243.84,0.0
662,Duque de Caxias,BR,-22.78556,-43.31167,818329,9046,2873067.02,148189.75,20335.14,45407.63
663,João Pessoa,BR,-7.115,-34.86306,817511,9042,1923226.81,81900.66,4051.24,66567.86
664,Bukavu,CD,-2.49077,28.84281,816811,9038,1049525.8,102573.87,0.0,0.0
665,Barcelona,VE,10.1384,-64.68769,815141,9029,1101146.04,13075.38,505.59,0.0
666,Bangui,CF,4.36122,18.55496,812407,9013,1129749.04,288193.62,0.0,0.0
667,Hermosillo,MX,29.08874,-110.96677,812229,9012,2943723.26,141528.7,29208.82,6093.19
668,Bhayandar,IN,19.30157,72.85107,809378,8997,853001.13,33507.65,5971.45,382.58
669,Culiacán,MX,24.80209,-107.39421,808416,8991,2896421.65,145944.49,10379.47,10462.41
670,Petaling Jaya,MY,3.10726,101.60671,807879,8988,2943179.87,559311.07,171516.33,56211.56
671,Malatya,TR,38.35018,38.31667,806156,8979,1811454.4,35506.73,2086.29,0.0
672,Anqing,CN,30.51365,117.04723,804493,8969,649575.26,15076.15,1380.09,3857.23
673,Oran,DZ,35.69906,-0.63588,803329,8963,1752368.54,59348.11,3431.55,122055.95
674,Freetown,SL,8.48714,-13.2356,802639,8959,726050.21,110691.78,526.01,411.57
675,San Pedro Sula,HN,15.50585,-88.02588,801259,8951,1605849.32,46647.53,2450.57,5436.35
676,Narela,IN,28.85267,77.09288,800000,8944,1833505.05,4467.61,0.0,31398.56
677,Xingtai,CN,37.06217,114.49272,798770,8937,1129190.55,14038.12,826.51,0.0
678,Niigata,JP,37.92259,139.04125,797591,8931,2201414.23,244631.34,75819.28,758.59
679,Muscat,OM,23.58413,58.40778,797000,8927,970289.78,54106.94,3628.79,1433.31
680,Zarqa,JO,32.07275,36.08796,792665,8903,1963510.8,9254.78,310.23,0.0
681,Çankaya,TR,39.9179,32.86268,792189,8900,2720699.66,378223.59,55339.97,69932.8
682,Hamamatsu,JP,34.7,137.73333,791707,8898,3574249.95,577940.46,350158.87,6189.09
683,Kolwezi,CD,-10.71484,25.46674,790248,8890,1358016.74,47454.62,0.0,0.0
684,Vinh,VN,18.67337,105.69232,790000,8888,2158160.44,28170.79,1617.6,51625.37
685,Eskişehir,TR,39.77667,30.52056,789023,8883,1841822.79,98658.28,15560.53,19357.66
686,Thiruvananthapuram,IN,8.4855,76.94924,788271,8878,2555097.33,42502.64,4581.15,77600.08
687,Pasragad Branch,IR,34.77772,48.47168,787878,8876,1155049.75,99463.24,5393.98,72.77
688,Zhaotong,CN,27.31667,103.71667,787845,8876,544859.11,4521.74,1629.23,0.0
689,Panzhihua,CN,26.58509,101.71276,787177,8872,556095.91,63217.69,3402.78,0.0
690,Chuzhou,CN,32.32194,118.29778,782671,8847,529533.59,19302.89,279.99,0.0
691,Seattle,US,47.60621,-122.33207,780995,8837,1841692.57,3186105.65,2731040.14,713748.29
692,Port Said,EG,31.26531,32.3019,780515,8835,760075.37,56784.03,1968.44,0.0
693,Cúcuta,CO,7.90745,-72.5049,777106,8815,2016322.58,147274.06,1583.85,15271.96
694,Homs,SY,34.72682,36.72339,775404,8806,1611384.7,9881.46,1011.39,2218.96
695,Xuanzhou,CN,30.9525,118.75528,774332,8800,567494.36,11959.52,1811.61,0.0
696,Ibb,YE,13.96667,44.18333,771514,8784,734622.59,4924.61,0.0,0.0
697,Nampula,MZ,-15.11646,39.2666,770379,8777,1103418.46,6039.21,0.0,0.0
698,Shangyu,CN,30.01556,120.87111,770000,8775,685420.25,6819.73,440.54,0.0
699,Bujumbura,BI,-3.38193,29.36142,769317,8771,1223960.18,114338.83,0.0,542.3
700,Łódź,PL,51.77058,19.47395,768755,8768,1330310.64,3275176.54,1264840.52,50584.65
701,Tyumen,RU,57.15222,65.52722,768358,8766,1333984.78,904789.18,183174.84,3427.1
702,Erzurum,TR,39.90861,41.27694,767848,8763,848594.28,34813.11,12307.79,327.14
703,Anshun,CN,26.25,105.93333,765313,8748,455760.05,48463.06,380.79,3222.23
704,Dodoma,TZ,-6.17221,35.73947,765179,8747,2361644.04,763816.43,1669.45,6601.7
705,Rajshahi,BD,24.374,88.60114,763580,8738,818383.69,19129.81,421.18,6956.38
706,Dera Ismail Khan,PK,31.83129,70.9017,763195,8736,804731.65,4176.34,0.0,0.0
707,Wuzhou,CN,23.48054,111.28848,761948,8729,492717.91,49033.87,8185.02,0.0
708,Ipoh,MY,4.5841,101.0829,759952,8718,2414812.7,141651.8,2987.78,38635.08
709,Qinhuangdao,CN,39.94104,119.58936,759718,8716,585914.72,9612.59,0.0,32395.74
710,Benghazi,LY,32.11486,20.06859,757490,8703,1891001.47,35266.19,0.0,18932.24
711,Kraków,PL,50.06143,19.93658,755050,8689,1417895.67,3064541.53,849321.73,568139.4
712,Alīgarh,IN,27.88145,78.07464,753207,8679,2580094.59,4444.92,0.0,0.0
713,Shaoyang,CN,27.23818,111.46214,753194,8679,506766.15,3202.29,430.34,0.0
714,Winnipeg,CA,49.8844,-97.14704,749607,8658,1924289.63,2798658.44,2358149.32,185312.43
715,Bağcılar,TR,41.03903,28.85671,749024,8655,3975880.47,482359.13,39923.52,49842.96
716,Ōta,JP,35.56126,139.71605,748081,8649,3439439.84,1188660.61,674202.46,137532.33
717,Andijon,UZ,40.78338,72.35067,747800,8648,1327040.04,27718.29,1117.21,0.0
718,Bareilly,IN,28.36678,79.43167,745435,8634,1487600.91,3296.15,1088.84,0.0
719,Buraydah,SA,26.32599,43.97497,745353,8633,2634406.88,5737.63,70.64,0.0
720,São Bernardo do Campo,BR,-23.69389,-46.565,743372,8622,2965301.22,301054.33,98933.71,404578.45
721,Hegang,CN,47.34727,130.29033,743307,8622,320629.95,834.85,0.0,0.0
722,Morelia,MX,19.70078,-101.18443,743275,8621,2905029.61,138889.44,8281.84,14607.88
723,Riga,LV,56.946,24.10589,742572,8617,946910.57,2457529.23,570343.13,317671.25
724,Tasikmalaya,ID,-7.3274,108.2207,741760,8613,1357520.53,12591.57,0.0,0.0
725,Amsterdam,NL,52.37403,4.88969,741636,8612,2007872.01,1726260.4,124720.6,666920.81
726,Ma’anshan,CN,31.68579,118.51008,741531,8611,783754.23,24217.07,0.0,3834.47
727,Shah Alam,MY,3.08507,101.53281,740750,8607,2335819.28,383621.13,66897.3,55460.95
728,Kumamoto,JP,32.80589,130.69181,738907,8596,2622181.19,322396.17,67124.9,7598.89
729,Oyo,NG,7.85367,3.93235,736072,8579,1361250.09,29515.09,208.7,0.0
730,Torreón,MX,25.54389,-103.41898,735340,8575,3052822.31,106754.45,8183.51,228.04
731,Deyang,CN,31.13019,104.38198,735070,8574,813657.08,11214.53,3092.99,0.0
732,Abeokuta,NG,7.15571,3.34509,735000,8573,1736380.45,1782.53,0.0,0.0
733,Al Ḩudaydah,YE,14.79781,42.95452,734699,8571,740613.01,4609.32,0.0,0.0
734,Yangquan,CN,37.8575,113.56333,731228,8551,478432.96,3044.38,0.0,0.0
735,Akure,NG,7.25256,5.19312,730000,8544,1948136.73,31083.44,4829.56,46201.88
736,São José dos Campos,BR,-23.17944,-45.88694,729737,8542,1323787.81,123947.81,22979.17,27581.28
737,Denver,US,39.73915,-104.9847,729019,8538,2613160.24,2603655.62,2189910.27,169771.79
738,Osasco,BR,-23.5325,-46.79167,728615,8536,2718579.69,222884.02,44178.54,167780.23
739,Cagayan de Oro,PH,8.48222,124.64722,728402,8535,1148203.24,111018.6,1255.5,51469.76
740,Ashgabat,TM,37.95,58.38333,727700,8531,1260180.13,711621.24,278783.43,1193.27
741,Álvaro Obregón,MX,19.35867,-99.20329,726664,8524,3669885.46,513813.39,129844.89,453393.29
742,Aihara,JP,35.6,139.31667,725493,8518,2853709.69,1306452.69,650032.87,13284.41
743,Evaton,ZA,-26.53333,27.85,725468,8517,1706031.11,11777.5,0.0,0.0
744,Denpasar,ID,-8.65,115.21667,725314,8517,2552707.77,135139.88,2240.12,37221.03
745,Muzaffarābād,PK,34.37002,73.47082,725000,8515,551331.74,13290.96,0.0,0.0
746,Okayama,JP,34.65,133.93333,724691,8513,3069275.32,795234.65,502962.13,1066.88
747,Wanzhou,CN,30.76451,108.39586,723215,8504,576724.57,14396.32,956.49,0.0
748,San Luis Potosí,MX,22.15234,-100.97135,722772,8502,3305249.59,208085.35,10682.13,9809.47
749,Aguascalientes,MX,21.88262,-102.2843,722250,8499,2986160.21,153853.83,5103.34,5864.59
750,Zhumadian,CN,32.97944,114.02944,721670,8495,611529.92,2797.1,513.81,19910.05
751,Morādābād,IN,28.83893,78.77684,721139,8492,1697296.05,280.26,0.0,0.0
752,Sagamihara,JP,35.56707,139.24167,720780,8490,886225.31,518712.71,92232.57,5419.67
753,Mississauga,CA,43.5789,-79.6583,717961,8473,1668670.56,1271105.99,814312.64,451151.76
754,Lviv,UA,49.83826,24.02324,717273,8469,974704.4,1675405.1,203926.0,91820.47
755,Valenzuela,PH,14.7,120.9667,714978,8456,2088510.68,210025.24,49746.72,490709.19
756,Namangan,UZ,40.9983,71.67257,713220,8445,964551.11,27492.77,4376.46,0.0
757,Ribeirão Preto,BR,-21.1775,-47.81028,711825,8437,2319554.25,92786.95,30227.71,9409.95
758,Zaporizhzhya,UA,47.85167,35.11714,710052,8426,901672.1,532567.25,76242.99,3118.99
759,Zanzibar,TZ,-6.16394,39.19793,709809,8425,1038601.72,301981.87,76.32,42.03
760,Saltillo,MX,25.42595,-100.97963,709671,8424,2888672.88,87489.95,1238.47,164.45
761,Latakia,SY,35.53168,35.79011,709000,8420,932476.86,14197.64,0.0,732.13
762,Subang Jaya,MY,3.04384,101.58062,708296,8416,2674247.68,300169.72,62974.99,72735.05
763,Warangal,IN,18.0,79.58333,704570,8394,2123370.14,17680.69,1011.72,0.0
764,Tolyatti,RU,53.5303,49.3461,702879,8384,544256.04,826225.55,62452.87,89657.23
765,Jaboatão,BR,-8.18028,-35.00139,702621,8382,1044158.25,122211.23,13661.01,8758.28
766,Santo Domingo Oeste,DO,18.5,-70.0,701269,8374,2447143.55,99164.1,19991.22,48399.9
767,Santo Domingo Este,DO,18.48511,-69.84757,700000,8367,2525435.04,61721.75,7145.56,28370.04
768,Battagram,PK,34.67719,73.02329,700000,8367,453256.58,4758.5,0.0,0.0
769,Suez,EG,29.97371,32.52627,699541,8364,1182162.56,39761.37,0.0,6184.43
770,Changzhi,CN,35.20889,111.73861,699514,8364,118118.64,0.0,0.0,0.0
771,Agadir,MA,30.42018,-9.59815,698310,8356,1066798.14,137761.21,5345.24,8135.68
772,Edogawe,JP,35.69225,139.87308,697932,8354,3677055.57,2171574.91,1323832.46,116572.21
773,General Santos,PH,6.11278,125.17167,697315,8351,1661864.2,88181.06,3036.66,4262.11
774,Sarajevo,BA,43.84864,18.35644,696731,8347,1307659.35,254528.61,60636.49,63973.99
775,Balikpapan,ID,-1.26753,116.82887,695287,8338,935031.87,23119.3,177.66,1620.58
776,Adachi,JP,35.76318,139.80761,695043,8337,4504539.1,2443107.34,1659015.21,251015.28
777,Bauchi,NG,10.31032,9.84388,693700,8329,1297864.45,5284.69,0.0,0.0
778,Shizuoka,JP,34.98333,138.38333,693389,8327,2254543.3,258076.24,17813.76,303.49
779,Tunis,TN,36.81897,10.16579,693210,8326,2945278.71,103825.1,4231.48,43410.86
780,Zhangjiakou,CN,40.78341,114.87139,692602,8322,1050922.83,60646.77,7985.53,0.0
781,Serang,ID,-6.11528,106.15417,692101,8319,1653814.87,11744.9,79.2,0.0
782,Paranaque City,PH,14.48156,121.01749,689992,8307,2480997.2,296507.54,99280.13,358419.91
783,Washington,US,38.89511,-77.03637,689545,8304,2243152.05,3314759.51,2590395.04,590127.35
784,Nashville,US,36.16589,-86.78444,689447,8303,1637930.63,1263762.3,1038791.73,24431.1
785,Fuxin,CN,42.01556,121.65889,689050,8301,479085.09,6708.39,100.13,0.0
786,Ta’if,SA,21.27028,40.41583,688693,8299,1562509.2,19515.81,472.07,15075.5
787,Changsha,CN,22.38124,112.68492,688242,8296,658611.22,22313.4,0.0,0.0
788,Huangshi,CN,30.24706,115.04814,688090,8295,496916.88,46192.21,6705.2,44914.5
789,Liaoyang,CN,41.27194,123.17306,687890,8294,471424.94,45563.69,15274.94,0.0
790,Beira,MZ,-19.84361,34.83889,687764,8293,384882.06,59622.38,0.0,0.0
791,Sevilla,ES,37.38283,-5.97317,687488,8291,1756645.37,748361.61,171038.34,132884.14
792,Sorocaba,BR,-23.50167,-47.45806,687357,8291,2082321.46,89910.16,14566.06,1254237.64
793,Zaragoza,ES,41.65606,-0.87734,686986,8288,1041167.48,1077435.37,520260.5,152576.12
794,Baise,CN,23.89013,106.62684,686078,8283,479813.3,20799.69,782.98,0.0
795,Situbondo,ID,-7.70623,114.00976,685967,8282,613111.17,5117.55,0.0,0.0
796,Binzhou,CN,37.36667,118.01667,682717,8263,562612.47,2372.75,0.0,0.0
797,Oklahoma City,US,35.46756,-97.51643,681054,8253,1846612.73,460455.61,298579.07,19676.39
798,Yuncheng,CN,35.02306,110.99278,680036,8246,414690.24,46515.17,35508.2,0.0
799,Dezhou,CN,37.44661,116.36706,679535,8243,760609.94,9441.64,1806.45,0.0
800,Dushanbe,TJ,38.53575,68.77905,679400,8243,970452.49,202114.21,26202.96,51995.19
801,Cotonou,BJ,6.36536,2.41833,679012,8240,1245377.05,9663.87,0.0,3827.36
802,El Paso,US,31.75872,-106.48693,678815,8239,2507244.88,202540.66,45914.52,17026.6
803,Gorakhpur,IN,26.76628,83.36889,674246,8211,2119648.38,10693.48,134.8,2303.55
804,Guadalupe,MX,25.67678,-100.25646,673616,8207,3339034.43,311901.76,48567.38,16933.1
805,Acapulco de Juárez,MX,16.84942,-99.90891,673479,8207,867713.18,34458.48,5758.26,0.0
806,Guntur,IN,16.29974,80.45729,670073,8186,2091878.88,7611.71,38.92,1915.14
807,Katsina,NG,12.99082,7.60177,670000,8185,1233019.59,14261.39,0.0,0.0
808,Sanmenxia,CN,34.78081,111.19287,669307,8181,471426.38,9964.7,241.55,0.0
809,E’zhou,CN,30.39607,114.88655,668727,8178,626893.37,28616.76,0.0,0.0
810,Madīnat an Naşr,EG,30.06667,31.3,668413,8176,4101761.31,302358.73,1740.55,17053.7
811,Tabuk,SA,28.3998,36.57151,667000,8167,1733256.07,43607.18,2090.1,0.0
812,Kitwe,ZM,-12.80243,28.21323,665961,8161,1187956.32,22136.72,328.8,2878.13
813,Bulawayo,ZW,-20.15,28.58333,665952,8161,1494777.39,89530.05,0.0,2626.43
814,Mudanjiang,CN,44.54804,129.62594,665915,8160,645003.37,50815.36,6819.94,0.0
815,Aracaju,BR,-10.91111,-37.07167,664908,8154,1693674.33,101307.77,21394.52,242959.42
816,Athens,GR,37.98376,23.72784,664046,8149,4091878.29,743730.74,196532.42,472777.79
817,Zagreb,HR,45.81444,15.97798,663592,8146,1391550.98,1887275.9,727703.86,256378.55
818,Leshan,CN,29.56227,103.76386,662814,8141,545213.95,23738.15,95.67,0.0
819,Santo André,BR,-23.66389,-46.53833,662373,8139,2957030.58,308499.82,109655.14,498856.62
820,Vancouver,CA,49.24966,-123.11934,662248,8138,1615509.47,3187269.05,2666715.19,224569.68
821,Rizhao,CN,35.41414,119.52908,661943,8136,766889.5,18275.65,61.03,0.0
822,Helsinki,FI,60.16952,24.93545,658864,8117,755846.43,2018139.63,611517.61,76098.67
823,Cheonan,KR,36.8065,127.1522,658831,8117,950629.97,302459.72,94322.85,46018.32
824,Pontianak,ID,-0.03194,109.325,658685,8116,2034957.47,57539.79,1507.39,4827.34
825,Banjarmasin,ID,-3.31987,114.59075,657663,8110,1532493.28,79319.79,5448.93,7792.08
826,Puducherry,IN,11.93381,79.82979,657209,8107,1226393.13,36715.17,239.89,94175.65
827,Suining,CN,30.50802,105.57332,656760,8104,608574.46,31880.42,5237.84,0.0
828,Brampton,CA,43.68341,-79.76633,656480,8102,1425081.44,1155811.39,716975.3,225011.48
829,Puyang,CN,35.75641,115.04363,655674,8097,1233261.46,72398.86,3710.93,0.0
830,Boston,US,42.35843,-71.05977,653833,8086,2008593.35,2753310.06,2229484.53,242206.98
831,Tlalnepantla,MX,19.54005,-99.19538,653410,8083,3335909.66,280838.2,18041.87,69202.2
832,Portland,US,45.52345,-122.67621,652503,8078,2305187.44,743333.92,311865.99,2483271.55
833,Tlaquepaque,MX,20.64121,-103.29342,650123,8063,3466148.05,163767.69,14395.14,47754.26
834,Frankfurt am Main,DE,50.11552,8.68417,650000,8062,1349207.16,2078097.1,544238.65,754444.9
835,Macau,MO,22.20056,113.54611,649335,8058,915621.1,887017.13,38089.87,13140.36
836,Palermo,IT,38.1166,13.3636,648260,8051,1101117.79,283323.81,158710.68,75263.47
837,Izhevsk,RU,56.84976,53.20448,648213,8051,794049.06,843278.3,69141.72,14099.99
838,Colombo,LK,6.93548,79.84868,648034,8050,1042817.13,47047.28,6585.05,151227.34
839,Maturín,VE,9.74569,-63.18323,647459,8046,1045924.03,14637.83,1294.73,0.0
840,Amravati,IN,20.93333,77.75,647057,8044,1582738.86,0.0,0.0,57101.14
841,Detroit,US,42.33143,-83.04575,645705,8036,2049079.74,2210996.64,1905105.43,130734.74
842,Osogbo,NG,7.77104,4.55698,645000,8031,1665952.51,8777.22,0.0,13653.87
843,Honchō,JP,35.70129,139.98648,644668,8029,3105700.51,898423.64,589761.65,11905.56
844,Taguig,PH,14.5243,121.0792,644473,8028,2098531.36,351097.32,149337.18,653069.08
845,Bikaner,IN,28.01762,73.31495,644406,8027,2237946.42,5127.89,1141.7,0.0
846,Jaboatão dos Guararapes,BR,-8.11278,-35.01472,644037,8025,1094159.88,140926.34,6636.72,4794.39
847,Las Vegas,US,36.17497,-115.13722,641903,8012,2078402.98,307107.23,123206.64,27596.13
848,New South Memphis,US,35.08676,-90.05676,641608,8010,1238799.85,252865.5,134165.06,10994.9
849,Hwaseong-si,KR,37.20682,126.8169,640890,8006,610231.76,53631.88,1495.44,0.0
850,Gold Coast,AU,-28.00029,153.43088,640778,8005,808687.48,496833.73,210840.92,16362.74
851,Kotli,PK,33.51836,73.9022,640000,8000,421158.46,3720.13,0.0,0.0
852,Jeonju,KR,35.82194,127.14889,638019,7988,1245746.42,359529.6,69500.3,39295.59
853,Al Aḩmadī,KW,29.07694,48.08389,637411,7984,729228.85,71162.13,289.15,0.0
854,Cuenca,EC,-2.8953,-78.9963,636996,7981,1772047.88,173529.87,9700.19,996770.85
855,Chisinau,MD,47.00902,28.85938,635994,7975,787674.37,860738.02,92526.43,18797.97
856,Likasi,CD,-10.98303,26.7384,635768,7974,921669.11,125020.14,0.0,248.31
857,Wrocław,PL,51.1,17.03333,634893,7968,919396.83,2745626.49,224603.13,158662.17
858,Hebi,CN,35.73231,114.28616,634721,7967,832885.0,15785.71,344.68,0.0
859,Tshikapa,CD,-6.41621,20.79995,634529,7966,543459.49,82591.95,0.0,0.0
860,Kochi,IN,9.93988,76.26022,633553,7960,1139443.91,41342.31,476.14,247298.55
861,Memphis,US,35.14953,-90.04898,633104,7957,1130806.0,200442.18,126842.7,29728.69
862,Jingmen,CN,31.03361,112.20472,632954,7956,492916.0,18868.99,0.0,5096.88
863,Barnaul,RU,53.3598,83.7456,632372,7952,482217.53,529989.27,109335.41,21679.92
864,Dandong,CN,40.12917,124.39472,631973,7950,584396.97,32951.31,937.65,3042.04
865,Stuttgart,DE,48.78232,9.17702,630305,7939,1221662.31,1517370.01,170942.81,1190739.28
866,Cancún,MX,21.17429,-86.84656,628306,7927,2050229.89,68710.58,7513.16,12129.11
867,Bhilai,IN,21.20919,81.4285,627734,7923,1038678.96,1619.56,0.0,37592.24
868,Ndola,ZM,-12.95867,28.63659,627503,7922,1208849.42,30210.14,0.0,0.0
869,Contagem,BR,-19.93167,-44.05361,627123,7919,2428366.83,103218.19,12241.6,29086.22
870,Ulyanovsk,RU,54.32824,48.38657,626540,7915,436681.96,779412.0,48920.09,10810.47
871,Djibouti,DJ,11.58901,43.14503,626512,7915,748515.85,32923.22,128.38,667.11
872,Glasgow,GB,55.86515,-4.25763,626410,7915,2142703.01,918375.63,95947.89,404367.77
873,Panshan,CN,41.18806,122.04944,625040,7906,531743.95,4682.91,0.0,160.05
874,Louisville,US,38.25424,-85.75941,624444,7902,1705813.97,860149.86,436715.12,68143.32
875,Irkutsk,RU,52.29795,104.29585,623869,7899,747395.13,374848.97,139284.98,17178.3
876,Ansan-si,KR,37.32361,126.82194,623256,7895,1211723.42,272326.48,43181.79,4773.45
877,Al Mansurah,EG,31.03637,31.38069,621953,7886,1651068.41,38122.34,0.0,17582.68
878,Kermanshah,IR,34.31417,47.065,621100,7881,1273930.26,42998.4,1902.33,2072.44
879,Düsseldorf,DE,51.22172,6.77616,620523,7877,1187080.39,1632205.1,33218.2,671105.0
880,Coyoacán,MX,19.3467,-99.16174,620416,7877,3398392.51,474479.33,101954.64,352929.53
881,Feira de Santana,BR,-12.26667,-38.96667,619609,7872,1835126.64,25775.53,1700.23,121778.23
882,Jiaozhou,CN,36.28389,120.00333,619266,7869,560102.14,31.56,0.0,0.0
883,Suizhou,CN,31.71111,113.36306,618582,7865,358457.58,1417.01,27.24,0.0
884,Villa Nueva,GT,14.52512,-90.58544,618397,7864,1846249.44,56849.47,6986.98,9495.77
885,Khabarovsk,RU,48.48032,135.08822,618150,7862,533381.94,327089.97,47169.74,32109.55
886,Cuiabá,BR,-15.59611,-56.09667,618124,7862,2014875.15,128596.24,44833.04,10993.56
887,Arusha,TZ,-3.36667,36.68333,617631,7859,1702238.2,46542.92,32.17,4330.9
888,Pasig City,PH,14.58691,121.0614,617301,7857,3046222.84,523421.37,202700.68,1350929.84
889,Chizhou,CN,30.66134,117.47783,615274,7844,368340.2,1623.37,0.0,0.0
890,Santa María Chimalhuacán,MX,19.42155,-98.95038,612383,7825,2906934.6,47928.64,1513.04,0.0
891,Ya'an,CN,29.98521,102.999,612056,7823,565746.27,63766.7,1799.9,751.14
892,Cuttack,IN,20.46497,85.87927,610189,7811,873677.94,133.68,0.0,2873.95
893,Borivli,IN,19.23496,72.85976,609617,7808,979207.41,48301.36,9190.88,1352.77
894,Yaroslavl,RU,57.62987,39.87368,608722,7802,745110.2,629847.04,132554.33,29497.46
895,Göteborg,SE,57.70716,11.96679,608462,7800,1407607.23,2575418.2,118116.34,374669.09
896,Kawaguchi,JP,35.80521,139.71072,607373,7793,4131392.93,1039856.62,604518.51,30697.55
897,Bukit Rahman Putra,MY,3.21727,101.5608,607000,7791,1424278.22,185308.34,42173.03,35533.82
898,Jambi City,ID,-1.6,103.61667,606200,7786,1523875.82,9458.68,31.81,765.86
899,Ha'il,SA,27.52188,41.69073,605930,7784,2062502.12,10631.39,0.0,0.0
900,Bhavnagar,IN,21.76287,72.15331,605882,7784,1193873.7,792.32,0.0,0.0
901,Benoni,ZA,-26.18848,28.32078,605344,7780,1409743.38,31325.69,1257.14,4292.07
902,Vladivostok,RU,43.10562,131.87353,604901,7778,318345.4,751015.23,16356.05,9825.19
903,Jinzhou,CN,41.10778,121.14167,604269,7773,464392.84,8330.2,176.0,0.0
904,Tuxtla,MX,16.75357,-93.11578,604147,7773,1841004.48,98157.97,663.38,2783.57
905,Kryvyy Rih,UA,47.90572,33.39404,603904,7771,804013.17,334561.21,31863.25,17252.31
906,Sanming,CN,26.24861,117.61861,602166,7760,292219.42,52144.55,8549.96,10155.19
907,Islamabad,PK,33.72148,73.04329,601600,7756,1101789.3,350832.54,7660.41,1627.78
908,Sāngli,IN,16.85438,74.56417,601214,7754,1066917.77,21409.76,1056.48,0.0
909,Jamnagar,IN,22.47292,70.06673,600943,7752,1383120.8,5531.79,1410.17,192.8
910,Lubango,AO,-14.91717,13.4925,600751,7751,1095570.55,63918.42,5934.63,252.88
911,Shuangyashan,CN,46.67686,131.13273,600000,7746,433946.6,48798.83,0.0,0.0
912,Pokhara,NP,28.26689,83.96851,599504,7743,591442.18,206067.35,1912.7,5494.45
913,Rotterdam,NL,51.9225,4.47917,598199,7734,1885781.27,1247206.41,30260.28,389710.0
914,Borama,SO,9.93611,43.18278,597842,7732,644144.87,1268.38,0.0,0.0
915,Pallabi,BD,23.825,90.37,597574,7730,1938536.3,91897.76,10335.77,149158.03
916,Luancheng,CN,37.88452,114.64629,597130,7727,636208.31,0.0,0.0,0.0
917,Makhachkala,RU,42.97638,47.50236,596356,7722,869717.57,69938.96,16660.13,34895.9
918,Anyang-si,KR,37.3925,126.92694,595644,7718,1132889.65,595471.8,88359.71,22894.18
919,Huambo,AO,-12.77611,15.73917,595304,7716,1306930.3,8088.08,0.0,0.0
920,Samarkand,UZ,39.65456,66.96445,595200,7715,1547381.68,182397.72,34595.71,16727.34
921,Kagoshima,JP,31.56667,130.55,595049,7714,1792793.57,532617.06,336864.55,3857.64
922,Mukalla,YE,14.54248,49.12424,594951,7713,295129.62,820.74,0.0,0.0
923,Rasht,IR,37.27611,49.58862,594590,7711,1641189.89,116737.28,13871.59,37981.57
924,Mar del Plata,AR,-38.00042,-57.5562,593337,7703,1681586.32,118694.35,57961.11,180207.55
925,Essen,DE,51.45657,7.01228,593085,7701,1367747.22,1788168.34,381647.36,1145954.85
926,Al Maḩallah al Kubrá,EG,30.97063,31.1669,592573,7698,1720594.16,17158.13,0.0,19564.98
927,Málaga,ES,36.72016,-4.42034,591637,7692,989777.89,657865.38,131301.51,386670.37
928,Shekhupura,PK,31.71287,73.98556,591424,7690,1065843.51,2621.13,0.0,0.0
929,Yingkou,CN,40.66472,122.23176,591159,7689,578109.15,12390.12,0.0,0.0
930,Cimahi,ID,-6.87222,107.5425,590782,7686,1761563.69,106856.92,26575.25,10944.45
931,Las Piñas,PH,14.45056,120.98278,590000,7681,2639833.02,215720.66,61349.85,139813.2
932,Zhangzhou,CN,24.51333,117.65556,589831,7680,848734.09,17086.5,237.12,0.0
933,Reynosa,MX,26.08005,-98.28456,589466,7678,1783115.5,51814.43,10657.49,3273.11
934,Thuận An,VN,10.9239,106.71428,588616,7672,1991933.42,13922.17,918.52,15749.83
935,Dortmund,DE,51.51494,7.466,588462,7671,1185108.3,2221395.74,805706.38,696560.66
936,Suginami,JP,36.2013,140.28406,588354,7670,1197184.28,158233.7,69744.97,34471.53
937,Londrina,BR,-23.31028,-51.16278,588125,7669,2090630.96,76448.57,10416.05,5708.53
938,Baltimore,US,39.29038,-76.61219,585708,7653,1771437.66,1460521.88,1109067.27,154846.78
939,Itabashi,JP,35.74893,139.71497,584483,7645,3796544.2,1800668.54,1081254.64,175987.01
940,New Kingston,JM,18.00747,-76.78319,583958,7642,1237997.79,76882.84,4903.72,28699.61
941,Pelentong,MY,1.5243,103.824,583640,7640,1546329.18,102435.71,3138.8,8637.75
942,Bucaramanga,CO,7.125,-73.11895,581130,7623,1075222.17,323080.25,107280.13,0.0
943,Genoa,IT,44.40478,8.94439,580097,7616,872465.56,608950.31,174448.82,58978.21
944,Hachiōji,JP,35.65583,139.32389,579355,7612,2520815.59,986879.13,478312.62,10837.31
945,Malacca,MY,2.196,102.2405,579000,7609,1139511.41,64725.6,3432.61,3745.18
946,Nha Trang,VN,12.24507,109.19432,579000,7609,828186.54,96792.89,9078.16,9281.77
947,Khabarovsk Vtoroy,RU,48.43787,135.12994,578303,7605,474633.87,321197.23,42016.73,32333.4
948,Kerman,IR,30.28321,57.07879,577514,7599,1907503.77,186791.16,64437.3,355.49
949,Orūmīyeh,IR,37.55274,45.07605,577307,7598,1935990.32,66615.16,795.28,110415.25
950,Bahçelievler,TR,41.00231,28.8598,576799,7595,2529623.16,342333.97,31393.84,20807.59
951,Tanta,EG,30.78847,31.00192,576648,7594,1607907.92,55241.98,0.0,22784.22
952,Jammu,IN,32.73528,74.86167,576198,7591,1932751.41,3226.54,0.0,47463.68
953,Iskandar Puteri,MY,1.39324,103.62322,575977,7589,661211.96,90805.65,2994.94,40608.49
954,Tlalpan,MX,19.29513,-99.16206,574577,7580,2612014.85,352188.3,30950.85,194826.35
955,Herāt,AF,34.34817,62.19967,574300,7578,1196780.89,7722.25,0.0,459.55
956,Gujrat,PK,32.5742,74.07542,574240,7578,889541.56,60437.08,652.88,3390.14
957,Tomsk,RU,56.50032,84.98204,574002,7576,697117.33,770225.84,248833.94,43858.82
958,Juiz de Fora,BR,-21.76417,-43.35028,573285,7572,1102572.5,50724.83,2664.56,5128.62
959,Umraniye,TR,41.01643,29.12476,573265,7571,2604006.66,323887.93,99244.99,170544.5
960,Shihezi,CN,44.3023,86.03694,572772,7568,436537.66,4982.05,194.7,2397.99
961,South Boston,US,42.33343,-71.04949,571281,7558,1495629.96,2059585.41,1624618.33,176280.99
962,Nakuru,KE,-0.30719,36.07225,570674,7554,963622.96,39403.04,6129.89,7805.97
963,Poznań,PL,52.40692,16.92993,570352,7552,1054445.82,2285976.39,484235.59,149969.38
964,Hamilton,CA,43.25011,-79.84963,569353,7546,1130101.7,559445.72,227553.23,240256.58
965,Irbid,JO,32.55556,35.85,569068,7544,1914166.15,6120.83,0.0,0.0
966,Manchester,GB,53.48095,-2.23743,568996,7543,2171430.89,1613049.84,803096.41,206361.8
967,Kota Bharu,MY,6.12361,102.24333,568900,7543,1570974.82,15897.37,782.36,130.89
968,Surrey,CA,49.10635,-122.82509,568322,7539,881219.19,954803.45,639864.55,72225.53
969,Meknes,MA,33.89352,-5.54727,568295,7539,1443175.99,39542.88,2572.26,3471.34
970,Puente Alto,CL,-33.61169,-70.57577,568106,7537,1062974.14,244238.06,112631.46,56466.79
971,Nyala,SD,12.04888,24.88069,565734,7522,2212114.79,2983.41,0.0,0.0
972,Orenburg,RU,51.7727,55.0988,564773,7515,812562.16,241418.43,56567.15,1281.53
973,Albuquerque,US,35.08449,-106.65114,564559,7514,1510349.32,1949164.49,1721439.15,29508.15
974,Bokāro,IN,23.66934,86.15161,564319,7512,578091.38,1786.0,0.0,0.0
975,Asmara,ER,15.33805,38.93184,563930,7510,1200187.63,59957.56,0.0,0.0
976,Sukkur,PK,27.70323,68.85889,563851,7509,561681.19,21603.95,0.0,0.0
977,Uberlândia,BR,-18.91861,-48.27722,563536,7507,2398854.87,57087.51,3708.53,124825.76
978,Milwaukee,US,43.0389,-87.90647,563531,7507,1340880.64,2924105.94,2584672.01,129106.07
979,Chợ Lớn,VN,10.75,106.65,561000,7490,2289889.31,172982.02,72921.36,41460.41
980,Wenchang,CN,19.55158,110.80279,560894,7489,177668.3,1980.29,0.0,0.0
981,Gombe,NG,10.28969,11.16729,560000,7483,1197508.0,30048.89,73.78,3004.51
982,Ile-Ife,NG,7.4824,4.56032,560000,7483,1142183.33,25242.69,0.0,109199.19
983,Hamhŭng,KP,39.91833,127.53639,559056,7477,484771.79,26116.87,0.0,0.0
984,Kemerovo,RU,55.33333,86.08333,558973,7476,503745.82,286839.62,70076.23,16543.31
985,Nasiriyah,IQ,31.05799,46.25726,558400,7473,1234565.26,5439.38,43.84,0.0
986,Bloemfontein,ZA,-29.12107,26.214,556637,7461,1440371.31,86769.65,3000.51,8311.61
987,Sheffield,GB,53.38297,-1.4659,556500,7460,1516073.5,1141570.29,47460.17,336153.83
988,Dresden,DE,51.05089,13.73832,556227,7458,1045429.54,1842396.16,261741.12,831802.31
989,Santiago de Cuba,CU,20.02287,-75.82171,555865,7456,676101.24,151166.24,27368.66,1526.19
990,Siping,CN,43.16143,124.37785,555609,7454,440676.86,16661.64,909.98,0.0
991,Benguela,AO,-12.57674,13.40268,555124,7451,1058276.12,6543.54,281.94,127.2
992,Huaihua,CN,27.56337,110.00404,552622,7434,394988.5,16119.47,326.56,0.0
993,Chiclayo,PE,-6.77008,-79.85495,552508,7433,1678205.57,346027.67,295825.5,12965.85
994,Zahedan,IR,29.4963,60.8629,551980,7430,1308381.07,99465.36,25468.85,4190.89
995,Banqiao,TW,25.01427,121.46719,551221,7424,1586024.65,907933.9,386008.85,154848.23
996,Nanded,IN,19.16023,77.31497,550564,7420,1138983.43,1376.46,0.0,0.0
997,Kozhikode,IN,11.24802,75.7804,550440,7419,1052785.69,28190.48,892.49,57002.03
998,Ulanqab,CN,40.993,113.133,550231,7418,826276.52,14079.17,514.61,0.0
999,Ajegunle,NG,6.45197,3.33115,550000,7416,1319698.8,10254.06,237.0,0.0
1000,Pristina,XK,42.67272,21.16688,550000,7416,910203.11,208463.68,27095.31,80837.37
